Region,Li,DepName,CarNo,CarNumber,CarTime,Address,Lng,Lat
中山區,松江里,民一分隊,100-021,第1車,17:15-17:30,臺北市中山區民生東路二段157號前,121.535927,25.058118
中山區,松江里,民一分隊,100-021,第1車,17:33-17:38,臺北市中山區民生東路二段145號前,121.534681,25.058135
中山區,松江里,民一分隊,100-021,第1車,17:40-17:50,臺北市中山區松江路261號前,121.533053,25.057661
中山區,松江里,民一分隊,100-021,第1車,17:55-18:05,臺北市中山區松江路303號前,121.533053,25.057661
中山區,中庄里,民一分隊,100-021,第2車,19:35-19:45,臺北市中山區民生東路二段125號前,121.532107,25.058228
中山區,中庄里,民一分隊,100-021,第2車,19:46-19:50,臺北市中山區民生東路二段93號前,121.530984,25.058112
中山區,中庄里,民一分隊,100-021,第2車,19:51-20:00,臺北市中山區吉林路163號前,121.530406,25.0590529999999
中山區,中庄里,民一分隊,100-021,第2車,20:01-20:10,臺北市中山區吉林路201號前,121.530428,25.060009
中山區,新生里,民一分隊,100-021,第2車,20:11-20:20,臺北市中山區吉林路245號前,121.530449,25.0613199999999
中山區,新生里,民一分隊,100-021,第2車,20:21-20:25,臺北市中山區吉林路267號前,121.530469999999,25.0620769999999
中山區,新生里,民一分隊,100-021,第2車,20:26-20:30,臺北市中山區民權東路二段94號前,121.531848,25.0623329999999
中山區,松江里,民一分隊,100-021,第2車,20:32-20:40,臺北市中山區民權東路二段158號前,121.534952,25.06223
中山區,松江里,民一分隊,100-021,第3車,21:50-21:55,臺北市中山區建國北路二段244號,121.536435999999,25.061319
中山區,松江里,民一分隊,100-021,第3車,21:57-22:03,臺北市中山區錦州街298號前(錦北公園),121.535824,25.0602179999999
中山區,松江里,民一分隊,100-021,第3車,22:05-22:13,臺北市中山區錦州街261號前,121.5347385,25.0603729
中山區,松江里,民一分隊,100-021,第3車,22:15-22:20,臺北市中山區錦州街243號前,121.533733,25.060326
大安區,車層里,敦化分隊,100-023,第1車,17:20-17:35,臺北市大安區忠孝東路四段216巷39號前,121.553034782409,25.0392359245584
大安區,車層里,敦化分隊,100-023,第1車,17:38-17:43,臺北市大安區忠孝東路四段216巷29號,121.553084,25.039795
大安區,建安里,敦化分隊,100-023,第1車,17:50-17:55,臺北市大安區忠孝東路四段203號,121.552083,25.04166
大安區,建安里,敦化分隊,100-023,第1車,17:58-18:03,臺北市大安區忠孝東路四段179號,121.550895999999,25.041706
大安區,建安里,敦化分隊,100-023,第1車,18:08-18:12,臺北市大安區忠孝東路四段145號,121.549865,25.0417479999999
大安區,正聲里,敦化分隊,100-023,第2車,19:35-19:40,臺北市大安區光復南路344號（第2次收集）,121.557064,25.03834
大安區,仁愛里,敦化分隊,100-023,第2車,19:50-19:55,臺北市大安區仁愛路四段27巷11號,121.545303,25.039539
大安區,仁愛里,敦化分隊,100-023,第2車,19:57-20:00,臺北市大安區仁愛路四段27巷1號,121.545243,25.038646
大安區,建倫里,敦化分隊,100-023,第2車,20:10-20:20,臺北市大安區忠孝東路四段170巷5弄20號,121.551457,25.040734
大安區,建倫里,敦化分隊,100-023,第2車,20:25-20:30,臺北市大安區仁愛路四段153號,121.5518318,25.0379593
大安區,仁愛里,敦化分隊,100-023,第3車,21:45-21:50,臺北市大安區敦化南路一段252巷13號前,121.547465,25.039881
大安區,仁愛里,敦化分隊,100-023,第3車,21:55-22:00,臺北市大安區仁愛路四段99號前,121.548133,25.0386279999999
大安區,仁愛里,敦化分隊,100-023,第3車,22:03-22:07,臺北市大安區仁愛路四段69號前,121.547225117683,25.0381180596202
大安區,仁愛里,敦化分隊,100-023,第3車,22:10-22:20,臺北市大安區大安路一段146號,121.5460235,25.0385843
中正區,龍福里,南昌分隊,100-029,第1車,17:00-17:05,臺北市中正區南海路48號旁,121.512120999999,25.0313249999999
中正區,龍福里,南昌分隊,100-029,第1車,17:06-17:11,臺北市中正區牯嶺街24號前,121.518296,25.027487
中正區,南福里,南昌分隊,100-029,第1車,17:12-17:15,臺北市中正區牯嶺街38號前,121.518296,25.027487
中正區,南福里,南昌分隊,100-029,第1車,17:16-17:20,臺北市中正區牯嶺街58之1號前,121.518296,25.027487
中正區,南福里,南昌分隊,100-029,第1車,17:21-17:25,臺北市中正區和平西路一段71號前,121.519076,25.02664
中正區,南福里,南昌分隊,100-029,第1車,17:28-17:32,臺北市中正區重慶南路三段23號前,121.515827178955,25.028596353616
中正區,南福里,南昌分隊,100-029,第1車,17:33-17:37,臺北市中正區重慶南路三段1之4號前,121.515528,25.029608
中正區,龍福里,南昌分隊,100-029,第1車,17:39-17:43,臺北市中正區重慶南路二段73號前,121.515392,25.030041
中正區,龍福里,南昌分隊,100-029,第1車,17:43-17:47,臺北市中正區重慶南路二段59號前,121.515075,25.030795
中正區,龍福里,南昌分隊,100-029,第1車,17:48-17:52,臺北市中正區重慶南路二段15號前,121.51427,25.032565
中正區,板溪里,南昌分隊,100-029,第1車,18:02-18:07,臺北市中正區南昌路二段96號前,121.521756999999,25.0261609999999
中正區,頂東里,南昌分隊,100-029,第1車,18:08-18:12,臺北市中正區南昌路二段140號前,121.522825999999,25.0252489999999
中正區,頂東里,南昌分隊,100-029,第1車,18:13-18:18,臺北市中正區南昌路二段206號前,121.52432,25.024038
中正區,南福里,南昌分隊,100-029,第1車,18:40-18:44,臺北市中正區南昌路二段69號前,121.520593,25.027417
中正區,南福里,南昌分隊,100-029,第1車,18:45-18:49,臺北市中正區南昌路二段31號前,121.519844,25.028019
中正區,南福里,南昌分隊,100-029,第1車,18:50-18:54,臺北市中正區南昌路一段141號前,121.518586,25.0295859999999
中正區,南福里,南昌分隊,100-029,第1車,18:55-18:59,臺北市中正區南昌路一段105號前,121.518142,25.0301879999999
中正區,南福里,南昌分隊,100-029,第1車,19:00-19:05,臺北市中正區南昌路一段55號前,121.517357,25.031275
中正區,龍福里,南昌分隊,100-029,第1車,19:06-19:10,臺北市中正區南昌路一段29號前,121.516953,25.0318159999999
中正區,螢雪里,南昌分隊,100-029,第2車,20:30-20:34,臺北市中正區汀州路二段8號旁,121.5164971,25.0256124
中正區,螢圃里,南昌分隊,100-029,第2車,20:35-20:39,臺北市中正區汀州路二段30號,121.517219,25.0253289999999
中正區,螢圃里,南昌分隊,100-029,第2車,20:40-20:44,臺北市中正區汀州路二段70號,121.518552,25.025075
中正區,螢圃里,南昌分隊,100-029,第2車,20:45-20:50,臺北市中正區汀州路二段118號,121.520294,25.0246369999999
中正區,螢圃里,南昌分隊,100-029,第2車,20:51-20:55,臺北市中正區汀州路二段150號,121.521345,25.0241849999999
中正區,新營里,南昌分隊,100-029,第2車,21:05-21:09,臺北市中正區羅斯褔路二段7之5號,121.52127,25.029131
中正區,新營里,南昌分隊,100-029,第2車,21:10-21:14,臺北市中正區羅斯褔路一段121號,121.520031,25.030746
中正區,新營里,南昌分隊,100-029,第2車,21:15-21:19,臺北市中正區羅斯褔路一段79號前,121.519632,25.031274
中正區,新營里,南昌分隊,100-029,第2車,21:22-21:25,臺北市中正區愛國東路60號前,121.522621,25.0324589999999
中正區,龍福里,南昌分隊,100-029,第2車,21:26-21:30,臺北市中正區南海路6號前,121.512120999999,25.0313249999999
中正區,龍福里,南昌分隊,100-029,第2車,21:31-21:34,臺北市中正區南海路20號前,121.512120999999,25.0313249999999
中正區,龍福里,南昌分隊,100-029,第2車,21:35-21:39,臺北市中正區南昌路一段30號前,121.516553,25.031967
中正區,龍福里,南昌分隊,100-029,第2車,21:40-21:46,臺北市中正區南昌路一段78號前,121.517267,25.0309829999999
中正區,南福里,南昌分隊,100-029,第2車,21:47-21:51,臺北市中正區南昌路一段106號旁,121.517751,25.030342
中正區,南福里,南昌分隊,100-029,第2車,21:52-21:56,臺北市中正區南昌路一段130號前,121.518324,25.02957
中正區,南福里,南昌分隊,100-029,第2車,21:57-22:01,臺北市中正區南昌路二段4之1號前,121.519378,25.028195
中正區,南福里,南昌分隊,100-029,第2車,22:02-22:06,臺北市中正區南昌路二段42號旁,121.519386999999,25.028182
中正區,板溪里,南昌分隊,100-029,第2車,22:07-22:10,臺北市中正區南昌路二段96號前,121.521756999999,25.0261609999999
文山區,景仁里,景美分隊,100-031,第1車,17:00-17:05,臺北市文山區溪口街28巷1號前,121.54037,24.9952669999999
文山區,景仁里,景美分隊,100-031,第1車,17:06-17:11,臺北市文山區溪口街70號旁,121.538588,24.995584
文山區,景仁里,景美分隊,100-031,第1車,17:14-17:19,臺北市文山區景福街45巷1號旁,121.537229999999,24.9982499999999
文山區,景仁里,景美分隊,100-031,第1車,17:20-17:25,臺北市文山區景仁街78巷1號前,121.538507,24.9981429999999
文山區,景仁里,景美分隊,100-031,第1車,17:26-17:30,臺北市文山區景仁街32號前,121.53865,24.99772
文山區,景仁里,景美分隊,100-031,第1車,17:31-17:38,臺北市文山區羅斯福路六段142巷20弄2~3號前,121.540301,24.996931
文山區,萬年里,景美分隊,100-031,第1車,17:46-17:51,臺北市文山區汀州路四段105巷1號旁,121.5367983,25.0066099999999
文山區,萬年里,景美分隊,100-031,第1車,17:52-18:00,臺北市文山區汀州路四段85巷3號旁,121.537561999999,25.0071179999999
文山區,萬年里,景美分隊,100-031,第1車,18:01-18:06,臺北市文山區羅斯福路五段90-3號旁,121.538283,25.0074119999999
文山區,萬年里,景美分隊,100-031,第1車,18:07-18:14,臺北市文山區羅斯福路五段166-2號前,121.559834499999,25.091075
文山區,萬隆里,景美分隊,100-031,第1車,18:15-18:20,臺北市文山區羅斯福路五段206-3號前,121.5369724,25.0042921
文山區,興豐里,景美分隊,100-031,第2車,20:08-20:12,臺北市文山區興隆路一段177號旁,121.542925999999,25.0011578999999
文山區,萬盛里,景美分隊,100-031,第2車,20:14-20:19,臺北市文山區羅斯福路五段125號前,121.539185,25.004846
文山區,萬盛里,景美分隊,100-031,第2車,20:20-20:24,臺北市文山區羅斯福路五段87號前,121.539241,25.005984
文山區,萬盛里,景美分隊,100-031,第2車,20:25-20:30,臺北市文山區羅斯福路五段51號旁,121.536956,25.003843
文山區,萬盛里,景美分隊,100-031,第2車,20:31-20:36,臺北市文山區羅斯福路五段15號前,121.538461,25.008032
文山區,萬年里,景美分隊,100-031,第2車,20:39-20:45,臺北市文山區羅斯福路五段2號前,121.537223,25.009622
文山區,萬和里,景美分隊,100-031,第2車,20:48-20:55,臺北市文山區溪洲街10號旁,121.535599,25.002447
文山區,萬和里,景美分隊,100-031,第2車,20:56-21:01,臺北市文山區汀州路四段150號旁,121.535387,25.004915
文山區,萬和里,景美分隊,100-031,第2車,21:02-21:05,臺北市文山區汀州路四段215號前,121.535759,25.0041629999999
文山區,萬年里,景美分隊,100-031,第2車,21:06-21:12,臺北市文山區羅斯福路五段170巷32號旁,121.536748409271,25.0047426709792
文山區,景華里,景美分隊,100-031,第2車,21:22-21:24,臺北市文山區景興路10巷1號旁,121.543899,24.9980249999999
文山區,萬有里,景美分隊,100-031,第2車,21:25-21:27,臺北市文山區三福街9巷1號對面,121.542188999999,24.9979359999999
文山區,景華里,景美分隊,100-031,第2車,21:29-21:36,臺北市文山區景興路42巷8弄2號旁,121.542777,24.996994
文山區,景華里,景美分隊,100-031,第2車,21:37-21:43,臺北市文山區景興路42巷4弄2號旁,121.544055,24.9975209999999
文山區,景華里,景美分隊,100-031,第2車,21:45-21:50,臺北市文山區景興路、景華街64號旁,121.5443,24.9929689999999
文山區,景華里,景美分隊,100-031,第2車,21:52-21:58,臺北市文山區景興路172號前,121.5443,24.9929689999999
文山區,景華里,景美分隊,100-031,第2車,22:00-22:06,臺北市文山區景華街52巷13號前,121.543781,24.993779
文山區,景華里,景美分隊,100-031,第2車,22:08-22:16,臺北市文山區景華街47號旁,121.544706,24.995139
文山區,景華里,景美分隊,100-031,第2車,22:17-22:23,臺北市文山區羅斯福路六段257號旁,121.541402,24.995248
文山區,景華里,景美分隊,100-031,第2車,22:24-22:30,臺北市文山區三福街2-1號旁,121.542353,24.997145
文山區,樟樹里,復興分隊,100-032,第1車,17:55-18:00,臺北市文山區忠順街一段26巷11弄2號前,121.559612,24.982541
文山區,樟文里,復興分隊,100-032,第1車,18:01-18:04,臺北市文山區木新路三段236號前,121.5591086,24.9812815
文山區,樟文里,復興分隊,100-032,第1車,18:05-18:09,臺北市文山區木新路三段310巷12弄1號旁,121.556929349899,24.9820076041171
文山區,樟文里,復興分隊,100-032,第1車,18:11-18:14,臺北市文山區忠順街一段8號前,121.55819,24.983844
文山區,樟樹里,復興分隊,100-032,第1車,18:15-18:20,臺北市文山區忠順街一段50號前,121.5600499,24.9841866999999
文山區,樟樹里,復興分隊,100-032,第1車,18:21-18:24,臺北市文山區興隆路四段76號前,121.561848521232,24.9839185617994
文山區,樟樹里,復興分隊,100-032,第1車,18:24-18:28,臺北市文山區興隆路四段98號前,121.562095284461,24.9832280919667
文山區,樟樹里,復興分隊,100-032,第1車,18:28-18:30,臺北市文山區興隆路四段124號前,121.562214,24.9825109999999
文山區,明興里,復興分隊,100-032,第2車,19:30-19:33,臺北市文山區木柵路二段163號前,121.56309,24.9892129999999
文山區,明興里,復興分隊,100-032,第2車,19:34-19:36,臺北市文山區木柵路二段95號前,121.561370999999,24.98891
文山區,樟樹里,復興分隊,100-032,第2車,19:40-19:45,臺北市文山區木新路三段176號前,121.560571,24.981873
文山區,樟新里,復興分隊,100-032,第2車,19:48-19:52,臺北市文山區一壽街64巷2號前,121.555915,24.978726
文山區,樟文里,復興分隊,100-032,第2車,19:56-20:00,臺北市文山區木新路三段336號前,121.555196642875,24.9803105710001
文山區,樟文里,復興分隊,100-032,第2車,20:01-20:07,臺北市文山區辛亥路七段73號前,121.5543237,24.9841216
文山區,樟新里,復興分隊,100-032,第2車,20:09-20:12,臺北市文山區木新路三段289號前,121.5575072,24.9808229
文山區,樟新里,復興分隊,100-032,第2車,20:12-20:15,臺北市文山區木新路三段239號前,121.558825,24.9810969999999
文山區,樟新里,復興分隊,100-032,第2車,20:15-20:18,臺北市文山區木新路三段213號前,121.559658,24.981304
文山區,樟腳里,復興分隊,100-032,第2車,20:18-20:21,臺北市文山區木新路三段181號前,121.560413999999,24.981468
文山區,樟腳里,復興分隊,100-032,第2車,20:21-20:23,臺北市文山區木新路三段153號前,121.561279,24.9817159999999
文山區,樟腳里,復興分隊,100-032,第2車,20:23-20:25,臺北市文山區木新路三段125號前,121.562102999999,24.981863
文山區,樟林里,復興分隊,100-032,第3車,21:30-21:32,臺北市文山區興隆路四段64號前,121.561371088027,24.9851779298892
文山區,樟林里,復興分隊,100-032,第3車,21:32-21:34,臺北市文山區忠順街一段143號前,121.560871,24.9844669999999
文山區,樟林里,復興分隊,100-032,第3車,21:34-21:37,臺北市文山區忠順街一段9巷1號旁,121.556777999999,24.984459
文山區,樟新里,復興分隊,100-032,第3車,21:40-21:44,臺北市文山區樟新街8巷2號旁,121.554581,24.9795349999999
文山區,樟新里,復興分隊,100-032,第3車,21:44-21:48,臺北市文山區樟新街28號前,121.55543,24.97866
文山區,樟新里,復興分隊,100-032,第3車,21:48-21:52,臺北市文山區樟新街58號前,121.55543,24.97866
文山區,樟新里,復興分隊,100-032,第3車,21:52-21:57,臺北市文山區一壽街64巷2號前,121.555915,24.978726
文山區,樟新里,復興分隊,100-032,第3車,21:59-22:02,臺北市文山區一壽街3巷2號前,121.556558,24.97988
文山區,樟新里,復興分隊,100-032,第3車,22:03-22:06,臺北市文山區木新路三段310巷12弄1號前,121.556907,24.982014
文山區,樟新里,復興分隊,100-032,第3車,22:08-22:10,臺北市文山區忠順街一段26巷11弄2號前,121.559612,24.982541
大同區,蓬萊里,大龍分隊,100-034,第1車,16:00-16:10,臺北市大同區蘭州街89巷口、蘭州公園,121.515636,25.064295
大同區,斯文里,大龍分隊,100-034,第1車,16:15-16:20,臺北市大同區大龍街85巷口,121.516600999999,25.066443
大同區,揚雅里,大龍分隊,100-034,第1車,16:22-16:28,臺北市大同區重慶北路三段113巷28號,121.515022,25.0672
大同區,揚雅里,大龍分隊,100-034,第1車,16:30-16:35,臺北市大同區民族西路162巷口,121.515416,25.068548
大同區,斯文里,大龍分隊,100-034,第1車,16:36-16:40,臺北市大同區民族西路78號前,121.517645,25.0684159999999
大同區,斯文里,大龍分隊,100-034,第1車,16:42-16:48,臺北市大同區承德路三段122巷口,121.518308,25.06729
大同區,蓬萊里,大龍分隊,100-034,第1車,16:49-16:53,臺北市大同區承德路三段90巷口,121.518303,25.06642
大同區,蓬萊里,大龍分隊,100-034,第1車,16:54-16:57,臺北市大同區承德路三段60號前,121.518103,25.0653
大同區,蓬萊里,大龍分隊,100-034,第1車,16:58-17:01,臺北市大同區承德路三段24巷口,121.517098,25.064245
大同區,蓬萊里,大龍分隊,100-034,第1車,17:02-17:05,臺北市大同區承德路三段43號前,121.51854,25.064564
大同區,斯文里,大龍分隊,100-034,第1車,17:06-17:09,臺北市大同區承德路三段85巷口,121.518449,25.066082
大同區,斯文里,大龍分隊,100-034,第1車,17:10-17:14,臺北市大同區承德路三段129巷口,121.519398,25.067295
大同區,斯文里,大龍分隊,100-034,第1車,17:15-17:18,臺北市大同區承德路三段159巷口,121.519283,25.068092
大同區,斯文里,大龍分隊,100-034,第1車,17:19-17:23,臺北市大同區民族西路50號前,121.519113,25.068382
大同區,斯文里,大龍分隊,100-034,第2車,19:20-19:30,臺北市大同區大龍街91巷11號前,121.515641,25.069747
大同區,至聖里,大龍分隊,100-034,第2車,19:35-19:38,臺北市大同區承德路三段177巷口,121.518815,25.0691479999999
大同區,至聖里,大龍分隊,100-034,第2車,19:39-19:43,臺北市大同區承德路三段225巷口,121.519782,25.0701989999999
大同區,至聖里,大龍分隊,100-034,第2車,19:44-19:46,臺北市大同區承德路三段247巷口,121.51862,25.07114
大同區,至聖里,大龍分隊,100-034,第2車,19:48-19:50,臺北市大同區承德路三段176巷口,121.517764,25.069165
大同區,至聖里,大龍分隊,100-034,第2車,19:51-19:53,臺北市大同區民族西路133號前,121.516604,25.0687059999999
大同區,至聖里,大龍分隊,100-034,第2車,19:54-19:59,臺北市大同區民族西路169巷口,121.515414118766,25.0686369729799
大同區,至聖里,大龍分隊,100-034,第2車,20:00-20:05,臺北市大同區民族西路187巷口,121.514920592308,25.0686223956955
大同區,至聖里,大龍分隊,100-034,第2車,20:06-20:10,臺北市大同區重慶北路三段191巷口,121.514909863471,25.0694047075036
大同區,至聖里,大龍分隊,100-034,第2車,20:11-20:15,臺北市大同區重慶北路三段225巷口,121.514044,25.070737
大同區,至聖里,大龍分隊,100-034,第2車,20:16-20:20,臺北市大同區重慶北路三段259巷口,121.514021,25.0716269999999
大同區,至聖里,大龍分隊,100-034,第3車,21:35-21:38,臺北市大同區酒泉街37號前,121.518945,25.070678
大同區,保安里,大龍分隊,100-034,第3車,21:39-21:41,臺北市大同區庫倫街55巷口,121.518567,25.071933
大同區,至聖里,大龍分隊,100-034,第3車,21:42-21:45,臺北市大同區承德路三段214巷口,121.5175224,25.0715232999999
大同區,至聖里,大龍分隊,100-034,第3車,21:46-21:49,臺北市大同區承德路三段208巷17號前,121.517545,25.070523
大同區,至聖里,大龍分隊,100-034,第3車,21:50-21:57,臺北市大同區大龍街215巷口大龍公園,121.51595,25.0705139999999
大同區,至聖里,大龍分隊,100-034,第3車,21:58-22:00,臺北市大同區大龍街187巷口,121.51600420475,25.0691714722078
大同區,至聖里,大龍分隊,100-034,第3車,22:03-22:08,臺北市大同區酒泉街78號前,121.516621,25.07178
大同區,至聖里,大龍分隊,100-034,第3車,22:09-22:13,臺北市大同區酒泉街50巷口,121.516617,25.071565
信義區,敦厚里,三張犁分隊,100-035,第1車,18:00-18:10,臺北市信義區基隆路一段101巷2號,121.56743,25.0449899999999
信義區,興雅里,三張犁分隊,100-035,第1車,18:15-18:45,臺北市信義區松隆路36號全聯社前,121.572149999999,25.046903
信義區,敦厚里,三張犁分隊,100-035,第2車,20:40-20:50,臺北市信義區永吉路120巷22弄口,121.570297,25.045036
信義區,興雅里,三張犁分隊,100-035,第2車,20:55-21:05,臺北市信義區忠孝東路五段207號(慶豐幼稚園)前,121.5701499,25.0410971999999
信義區,興雅里,三張犁分隊,100-035,第3車,21:15-21:50,臺北市信義區永吉路30巷151弄口,121.5689,25.0425
中山區,朱馥里,南京分隊,100-22,第1車,17:00-17:05,臺北市中山區民生東路三段10號旁,121.53886,25.057607
中山區,朱馥里,南京分隊,100-22,第1車,17:06-17:11,臺北市中山區民生東路三段36號前,121.540115,25.057662
中山區,朱馥里,南京分隊,100-22,第1車,17:12-17:20,臺北市中山區民生東路三段67號對面,121.542096734046,25.0577035225007
中山區,龍洲里,南京分隊,100-22,第1車,17:21-17:30,臺北市中山區復興北路234號(台北銀行前),121.5439016,25.0572297
中山區,龍洲里,南京分隊,100-22,第1車,17:31-17:45,臺北市中山區興安街75號,121.542838,25.056248
中山區,朱馥里,南京分隊,100-22,第2車,19:15-19:25,臺北市中山區建國北路二段51號,121.537263,25.0555349999999
中山區,朱馥里,南京分隊,100-22,第2車,19:26-19:31,臺北市中山區興安街16號,121.537884,25.05608
中山區,朱馥里,南京分隊,100-22,第2車,19:32-19:40,臺北市中山區興安街49號前,121.541800499999,25.0560875
中山區,朱馥里,南京分隊,100-22,第2車,19:41-19:50,臺北市中山區興安街64號前,121.541800499999,25.0560875
中山區,朱馥里,南京分隊,100-22,第2車,19:51-20:00,臺北市中山區龍江路172之2號前,121.540448,25.055382
中山區,朱馥里,南京分隊,100-22,第2車,20:01-20:09,臺北市中山區長春路235號前,121.539315,25.054751
中山區,朱馥里,南京分隊,100-22,第2車,20:10-20:15,臺北市中山區長春路195號,121.538118999999,25.054915
中山區,朱馥里,南京分隊,100-22,第3車,21:35-21:43,臺北市中山區興安街53之4號對面,121.541800499999,25.0560875
中山區,龍洲里,南京分隊,100-22,第3車,21:44-21:58,臺北市中山區興安街100號,121.542833,25.0557279999999
中山區,龍洲里,南京分隊,100-22,第3車,21:59-22:08,臺北市中山區復興北路204號前,121.544321,25.057034
中山區,龍洲里,南京分隊,100-22,第3車,22:09-22:14,臺北市中山區長春路325號前,121.543349,25.054798
中山區,龍洲里,南京分隊,100-22,第3車,22:15-22:20,臺北市中山區長春路299號前,121.542385999999,25.054769
松山區,東光里,東社分隊,100-25,第1車,17:25-17:30,臺北市松山區三民路3巷口(西松國小),121.563703,25.052026
松山區,東勢里,東社分隊,100-25,第1車,17:40-17:55,臺北市松山區南京東路四段179巷口,121.556515,25.052192
松山區,東勢里,東社分隊,100-25,第1車,17:57-18:10,臺北市松山區南京東路四段75巷口,121.553783999999,25.052723
松山區,中華里,東社分隊,100-25,第1車,18:12-18:25,臺北市松山區南京東路四段53巷口,121.551163,25.052855
松山區,東光里,東社分隊,100-25,第1車,18:35-18:55,臺北市松山區健康路170號旁(長壽公園),121.558854,25.053439
松山區,中華里,東社分隊,100-25,第2車,20:25-20:45,臺北市松山區敦化北路155巷66弄口,121.551177,25.0542699999999
松山區,中華里,東社分隊,100-25,第2車,20:47-20:55,臺北市松山區敦化北路155巷102號,121.552288,25.05434
松山區,龍田里,東社分隊,100-25,第2車,21:00-21:15,臺北市松山區健康路45號,121.554903,25.053507
松山區,中華里,東社分隊,100-25,第2車,21:20-21:35,臺北市松山區健康路44號(中華公園),121.5528039,25.0533208999999
松山區,東勢里,東社分隊,100-25,第2車,21:40-21:50,臺北市松山區南京東路四段131號,121.5551252,25.0516502999999
松山區,龍田里,東社分隊,100-25,第2車,22:00-22:10,臺北市松山區延壽街330巷6-2號,121.560160999999,25.0563
松山區,新聚里,松山分隊,100-26,第1車,17:20-17:40,臺北市松山區八德路四段319號,121.566985,25.049263
松山區,復盛里,松山分隊,100-26,第1車,17:50-18:07,臺北市松山區八德路四段70號,121.559980999999,25.0483198999999
松山區,復盛里,松山分隊,100-26,第1車,18:12-18:23,臺北市松山區八德路四段196號,121.563901,25.0486039
松山區,復盛里,松山分隊,100-26,第1車,18:25-18:30,臺北市松山區市民大道五段133號,121.563563,25.047768
松山區,復盛里,松山分隊,100-26,第1車,18:35-18:40,臺北市松山區市民大道五段99號,121.562074,25.047158
松山區,復盛里,松山分隊,100-26,第1車,18:45-19:05,臺北市松山區光復南路31號,121.557956,25.0466249
松山區,吉祥里,松山分隊,100-26,第2車,20:35-20:50,臺北市松山區吉祥路29號(中崙高中),121.562675,25.0497809999999
松山區,吉祥里,松山分隊,100-26,第2車,21:00-21:10,臺北市松山區光復北路11巷76號旁,121.559147999999,25.049616
松山區,新聚里,松山分隊,100-26,第2車,21:15-21:25,臺北市松山區南京東路五段202號(珍珠城),121.564769,25.051186
松山區,新聚里,松山分隊,100-26,第2車,21:30-21:40,臺北市松山區東興路14號,121.565164999999,25.049271
松山區,吉祥里,松山分隊,100-26,第2車,21:45-21:55,臺北市松山區八德路四段239號,121.564694,25.049025
松山區,復建里,中崙分隊,100-27,第1車,17:15-17:25,臺北市松山區光復南路6巷口,121.557846665382,25.0476438864575
松山區,復建里,中崙分隊,100-27,第1車,17:25-17:35,臺北市松山區光復南路32巷口,121.55779838562,25.0466961970375
松山區,復建里,中崙分隊,100-27,第1車,17:35-17:40,臺北市松山區光復南路58巷口,121.557793021202,25.0457096202695
松山區,敦化里,中崙分隊,100-27,第1車,17:50-18:09,臺北市松山區敦化南路一段25號,121.549323,25.046319
松山區,敦化里,中崙分隊,100-27,第1車,18:10-18:18,臺北市松山區敦化南路一段3號,121.549315,25.047356
松山區,敦化里,中崙分隊,100-27,第1車,18:20-18:30,臺北市松山區八德路三段12巷20號,121.550864,25.045489
松山區,松基里,中崙分隊,100-27,第2車,20:05-20:20,臺北市松山區復興北路207號,121.544492,25.056289
松山區,中正里,中崙分隊,100-27,第2車,20:25-20:40,臺北市松山區慶城街21號,121.54515,25.0533989999999
松山區,松基里,中崙分隊,100-27,第2車,20:42-20:50,臺北市松山區長春路431號,121.5466626,25.0545830999999
松山區,中正里,中崙分隊,100-27,第2車,21:00-21:10,臺北市松山區敦化北路4巷1號,121.547348,25.0500399999999
松山區,福成里,中崙分隊,100-27,第2車,21:15-21:30,臺北市松山區敦化南路一段102號,121.5485699,25.0461162
松山區,福成里,中崙分隊,100-27,第2車,21:32-21:45,臺北市松山區市民大道四段71號,121.546941,25.045348
北投區,洲美里,關渡分隊,100-602,第1車,17:45-17:50,臺北市北投區洲美街107號,121.503478,25.098255
北投區,洲美里,關渡分隊,100-602,第1車,18:00-18:02,臺北市北投區洲美街14巷口,121.51038,25.098374
北投區,洲美里,關渡分隊,100-602,第1車,18:03-18:05,臺北市北投區洲美街29巷對面,121.508238,25.0981379999999
北投區,洲美里,關渡分隊,100-602,第1車,18:06-18:08,臺北市北投區洲美街51巷口,121.506742,25.098071
北投區,洲美里,關渡分隊,100-602,第1車,18:09-18:11,臺北市北投區洲美街81巷,121.506023,25.097918
北投區,洲美里,關渡分隊,100-602,第1車,18:12-18:14,臺北市北投區洲美街95巷,121.506063999999,25.098922
北投區,洲美里,關渡分隊,100-602,第1車,18:15-18:17,臺北市北投區屈原宮,121.559834499999,25.091075
北投區,洲美里,關渡分隊,100-602,第1車,18:18-18:20,臺北市北投區洲美街139巷口,121.504313,25.099601
北投區,洲美里,關渡分隊,100-602,第1車,18:21-18:23,臺北市北投區洲美街196巷口,121.503369,25.1021229999999
北投區,洲美里,關渡分隊,100-602,第1車,18:24-18:26,臺北市北投區洲美街230巷口,121.4991,25.106528
北投區,洲美里,關渡分隊,100-602,第1車,18:27-18:29,臺北市北投區洲美街275號對面,121.4991,25.106528
北投區,一德里,關渡分隊,100-602,第2車,18:43-18:45,臺北市北投區立德路60號,121.471823,25.125646
北投區,一德里,關渡分隊,100-602,第2車,18:50-18:52,臺北市北投區立功路79巷口,121.469195,25.126017
北投區,一德里,關渡分隊,100-602,第2車,18:53-18:56,臺北市北投區中央北路四段595號五金行旁邊,121.465136,25.1243759
北投區,一德里,關渡分隊,100-602,第2車,18:57-19:00,臺北市北投區中央北路四段583巷口,121.4657554,25.1256241
北投區,一德里,關渡分隊,100-602,第2車,19:01-19:04,臺北市北投區中央北路四段577巷口,121.466905,25.1269177
北投區,一德里,關渡分隊,100-602,第2車,19:04-19:07,臺北市北投區中央北路四段541巷口,121.4678896,25.1274593
北投區,一德里,關渡分隊,100-602,第2車,19:08-19:11,臺北市北投區中央北路四段515巷口,121.469261,25.127399
北投區,一德里,關渡分隊,100-602,第2車,19:12-19:15,臺北市北投區中央北路四段一德宮前,121.4693859,25.1283005
北投區,桃源里,關渡分隊,100-602,第2車,19:35-19:39,臺北市北投區中央北路三段48號,121.485333999999,25.1382979999999
北投區,桃源里,關渡分隊,100-602,第2車,19:40-19:44,臺北市北投區中央北路三段92巷口,121.4842148,25.1380419
北投區,桃源里,關渡分隊,100-602,第2車,19:45-19:49,臺北市北投區中央北路三段148巷口,121.4826231,25.1376521
北投區,桃源里,關渡分隊,100-602,第2車,19:50-19:54,臺北市北投區中央北路三段168巷口,121.4819979,25.1373555999999
北投區,桃源里,關渡分隊,100-602,第2車,19:55-19:59,臺北市北投區中央北路三段220巷口,121.480722427368,25.1362763064439
北投區,桃源里,關渡分隊,100-602,第2車,20:00-20:04,臺北市北投區中央北路三段252巷口,121.479923129081,25.1358586546542
北投區,桃源里,關渡分隊,100-602,第2車,20:05-20:09,臺北市北投區中央北路三段276巷口,121.478933,25.1359409999999
北投區,一德里,關渡分隊,100-602,第2車,20:10-20:14,臺北市北投區中央北路四段30巷口,121.478206515312,25.1351107629965
北投區,一德里,關渡分隊,100-602,第2車,20:15-20:19,臺北市北投區中央北路四段142巷口,121.4755602,25.1338514
北投區,一德里,關渡分隊,100-602,第2車,20:20-20:24,臺北市北投區中央北路四段188號旁,121.474872,25.132681
北投區,一德里,關渡分隊,100-602,第2車,20:25-20:29,臺北市北投區中央北路四段316巷口,121.472713351249,25.1308515783879
北投區,一德里,關渡分隊,100-602,第2車,20:30-20:34,臺北市北投區中央北路四段404巷口,121.470718899999,25.1296579
北投區,一德里,關渡分隊,100-602,第2車,20:35-20:40,臺北市北投區中央北路四段456巷口,121.4697546,25.1290824999999
北投區,關渡里,關渡分隊,100-602,第3車,21:27-21:30,臺北市北投區關渡里民活動中心,121.559834499999,25.091075
北投區,關渡里,關渡分隊,100-602,第3車,21:31-21:34,臺北市北投區知行路316巷22弄口,121.559834499999,25.091075
北投區,關渡里,關渡分隊,100-602,第3車,21:35-21:38,臺北市北投區知行路316巷20弄口,121.559834499999,25.091075
北投區,關渡里,關渡分隊,100-602,第3車,21:39-21:41,臺北市北投區知行路316巷口,121.559834499999,25.091075
北投區,關渡里,關渡分隊,100-602,第3車,21:42-21:46,臺北市北投區知行路293巷口,121.559834499999,25.091075
北投區,關渡里,關渡分隊,100-602,第3車,21:47-21:51,臺北市北投區知行路245巷口,121.559834499999,25.091075
北投區,關渡里,關渡分隊,100-602,第3車,21:52-21:54,臺北市北投區知行路208號前,121.559834499999,25.091075
北投區,關渡里,關渡分隊,100-602,第3車,21:55-22:00,臺北市北投區知行路201巷口,121.559834499999,25.091075
內湖區,蘆洲里,東湖分隊,100-603,第1車,16:30-17:00,臺北市內湖區安美街181號斜對面,121.601336,25.0601814
內湖區,蘆洲里,東湖分隊,100-603,第1車,17:25-17:30,臺北市內湖區安康路127號前,121.603973,25.063955
內湖區,蘆洲里,東湖分隊,100-603,第1車,17:31-17:32,臺北市內湖區潭美街507號旁,121.591701,25.060027
內湖區,蘆洲里,東湖分隊,100-603,第1車,17:33-17:34,臺北市內湖區安美街59號前,121.599324999999,25.05992
內湖區,蘆洲里,東湖分隊,100-603,第1車,17:35-17:40,臺北市內湖區安康路58號,121.597067,25.0621647
內湖區,蘆洲里,東湖分隊,100-603,第1車,17:42-17:50,臺北市內湖區安康路228巷7號,121.60315,25.063224
內湖區,蘆洲里,東湖分隊,100-603,第1車,17:55-17:58,臺北市內湖區潭美街789號前,121.591701,25.060027
內湖區,五分里,東湖分隊,100-603,第1車,18:10-18:15,臺北市內湖區安康路183號,121.611211999999,25.065966
內湖區,樂康里,東湖分隊,100-603,第2車,19:10-19:20,臺北市內湖區康樂街12號,121.617786,25.0681189999999
內湖區,內溝里,東湖分隊,100-603,第2車,19:25-19:30,臺北市內湖區康樂街201巷8號對面,121.622555,25.0760089999999
內湖區,內溝里,東湖分隊,100-603,第2車,19:32-19:42,臺北市內湖區康樂街191號對面,121.62402,25.083565
內湖區,樂康里,東湖分隊,100-603,第2車,19:45-19:50,臺北市內湖區康樂街150號,121.619185,25.0724349999999
內湖區,東湖里,東湖分隊,100-603,第2車,19:55-20:00,臺北市內湖區東湖路121號,121.616463999999,25.0682839999999
內湖區,安湖里,東湖分隊,100-603,第2車,20:02-20:07,臺北市內湖區東湖路41號,121.613928,25.068897
內湖區,安湖里,東湖分隊,100-603,第2車,20:08-20:10,臺北市內湖區東湖路9號,121.612658,25.069064
內湖區,蘆洲里,東湖分隊,100-603,第3車,20:30-20:55,臺北市內湖區安美街181號斜對面,121.601336,25.0601814
內湖區,明湖里,東湖分隊,100-603,第3車,21:20-21:30,臺北市內湖區康寧路三段99巷93弄26號旁,121.610196,25.0722939999999
內湖區,明湖里,東湖分隊,100-603,第3車,21:32-21:42,臺北市內湖區康寧路三段101號,121.6097665,25.0715533999999
內湖區,金湖里,東湖分隊,100-603,第3車,21:44-21:47,臺北市內湖區金湖路339號之1,121.600396,25.0770626
內湖區,金湖里,東湖分隊,100-603,第3車,21:48-21:49,臺北市內湖區金湖路363巷103號,121.5994919,25.0729812
內湖區,葫洲里,東湖分隊,100-603,第3車,21:50-22:05,臺北市內湖區康寧路三段14號,121.6069078,25.0727417999999
內湖區,葫洲里,東湖分隊,100-603,第3車,22:06-22:10,臺北市內湖區民權東路六段280巷45弄32號,121.606891,25.071121
中正區,三愛里,仁愛分隊,100-S412,第1車,17:45-17:50,臺北市中正區仁愛路二段88號前,121.530736,25.037987
中正區,三愛里,仁愛分隊,100-S412,第1車,17:51-18:00,臺北市中正區仁愛路二段62號前,121.529184,25.03801
中正區,三愛里,仁愛分隊,100-S412,第1車,18:01-18:05,臺北市中正區仁愛路二段34-6號前,121.52727,25.0380389
中正區,文北里,仁愛分隊,100-S412,第1車,18:06-18:10,臺北市中正區仁愛路二段18號前,121.526241,25.038076
中正區,東門里,仁愛分隊,100-S412,第1車,18:12-18:18,臺北市中正區仁愛路一段04號前,121.521738,25.0385509
中正區,梅花里,仁愛分隊,100-S412,第1車,18:25-18:30,臺北市中正區林森北路11號前,121.523887,25.0461449
中正區,梅花里,仁愛分隊,100-S412,第1車,18:33-18:35,臺北市中正區北平東路7-2號前,121.523813,25.0463659999999
中正區,梅花里,仁愛分隊,100-S412,第1車,18:37-18:40,臺北市中正區天津街9號前,121.522565,25.048611
中正區,三愛里,仁愛分隊,100-S412,第2車,20:05-20:12,臺北市中正區新生南路一段134-3號前,121.532464,25.0365079
中正區,三愛里,仁愛分隊,100-S412,第2車,20:12-20:19,臺北市中正區新生南路一段138號前,121.5325424,25.0364553
中正區,三愛里,仁愛分隊,100-S412,第2車,20:20-20:27,臺北市中正區新生南路一段148號前,121.532448,25.0352618999999
中正區,三愛里,仁愛分隊,100-S412,第2車,20:28-20:35,臺北市中正區新生南路一段162號前,121.5324471,25.0345607
中正區,文北里,仁愛分隊,100-S412,第3車,21:30-21:35,臺北市中正區仁愛路二段25之1號,121.527313,25.038492
中正區,文北里,仁愛分隊,100-S412,第3車,21:37-21:45,臺北市中正區杭州南路一段75號前,121.525723,25.039427
中正區,東門里,仁愛分隊,100-S412,第3車,21:47-21:53,臺北市中正區紹興南街18-15號對面,121.524013,25.040589
中正區,東門里,仁愛分隊,100-S412,第3車,21:55-22:00,臺北市中正區林森南路57號前,121.5221113,25.0399484
中正區,東門里,仁愛分隊,100-S412,第3車,22:01-22:05,臺北市中正區徐州路20號前,121.523225,25.040628
南港區,萬福里,玉成分隊,101-036,第1車,18:00-18:08,臺北市南港區同德路45號前,121.585836,25.0460439999999
南港區,鴻福里,玉成分隊,101-036,第1車,18:10-18:20,臺北市南港區玉成街190巷口,121.5850867,25.0434847
南港區,成福里,玉成分隊,101-036,第1車,18:22-18:32,臺北市南港區成福路17號前,121.5865447,25.0450461
南港區,成福里,玉成分隊,101-036,第1車,18:33-18:43,臺北市南港區東新街82號前,121.587728,25.0468329999999
南港區,聯成里,玉成分隊,101-036,第1車,18:45-18:53,臺北市南港區忠孝東路六段278巷22弄18號前,121.589151,25.048147
南港區,聯成里,玉成分隊,101-036,第1車,18:54-19:06,臺北市南港區忠孝東路六段278巷21號前,121.589654,25.0485219999999
南港區,聯成里,玉成分隊,101-036,第1車,19:07-19:17,臺北市南港區忠孝東路六段280號前,121.589268,25.0490689999999
南港區,新光里,玉成分隊,101-036,第1車,19:19-19:30,臺北市南港區忠孝東路六段400號前,121.592612,25.049869
南港區,新光里,玉成分隊,101-036,第1車,19:32-19:40,臺北市南港區忠孝東路六段464號前,121.594555,25.050186
南港區,新光里,玉成分隊,101-036,第1車,19:41-19:45,臺北市南港區忠孝東路七段124巷17弄40號前,121.600278,25.0505159999999
南港區,成福里,玉成分隊,101-036,第2車,20:33-20:41,臺北市南港區成福路165號前,121.588898,25.040195
南港區,成福里,玉成分隊,101-036,第2車,20:42-20:57,臺北市南港區成福路121巷口,121.588479,25.0428479999999
南港區,成福里,玉成分隊,101-036,第2車,20:59-21:09,臺北市南港區成福路81號對面公園旁,121.588898,25.040195
南港區,百福里,玉成分隊,101-036,第2車,21:10-21:20,臺北市南港區成福路176號前,121.588898,25.040195
南港區,百福里,玉成分隊,101-036,第2車,21:21-21:31,臺北市南港區成福路206巷2號前,121.588348999999,25.040032
南港區,百福里,玉成分隊,101-036,第2車,21:32-21:42,臺北市南港區成福路253號對面,121.588898,25.040195
南港區,百福里,玉成分隊,101-036,第2車,21:43-21:50,臺北市南港區成福路266號旁,121.588898,25.040195
士林區,義信里,文林分隊,101-037,第1車,17:15-17:20,臺北市士林區基河路100號對面,121.523852348327,25.0880961001875
士林區,福佳里,文林分隊,101-037,第1車,17:23-17:28,臺北市士林區基河路140號前,121.522471999999,25.088956
士林區,福德里,文林分隊,101-037,第1車,17:31-17:36,臺北市士林區福德路60巷2號後面,121.522436,25.092382
士林區,福林里,文林分隊,101-037,第1車,18:00-18:05,臺北市士林區福林路220號前,121.532895999999,25.09699
士林區,福林里,文林分隊,101-037,第1車,18:06-18:11,臺北市士林區福林路252號前,121.532895999999,25.09699
士林區,福志里,文林分隊,101-037,第1車,18:13-18:18,臺北市士林區福林路253號前,121.532895999999,25.09699
士林區,福志里,文林分隊,101-037,第1車,18:19-18:24,臺北市士林區雨農路2巷6號前,121.533098,25.0975879999999
士林區,福志里,文林分隊,101-037,第1車,18:25-18:30,臺北市士林區雨農路34號前,121.532836,25.1011479999999
士林區,福志里,文林分隊,101-037,第1車,18:31-18:36,臺北市士林區福志路12號前,121.529865,25.0989059999999
士林區,福志里,文林分隊,101-037,第1車,18:37-18:42,臺北市士林區福志路50號前,121.529865,25.0989059999999
士林區,福志里,文林分隊,101-037,第1車,18:43-18:48,臺北市士林區福志路80巷2號邊,121.529295,25.0987499999999
士林區,福志里,文林分隊,101-037,第1車,18:49-18:54,臺北市士林區福志路101號對面,121.529865,25.0989059999999
士林區,福志里,文林分隊,101-037,第1車,18:55-19:00,臺北市士林區中山北路五段722號前,121.5274,25.0985149999999
士林區,福志里,文林分隊,101-037,第2車,20:10-20:15,臺北市士林區中山北路五段463號前,121.527512,25.092122
士林區,福林里,文林分隊,101-037,第2車,20:20-20:25,臺北市士林區中山北路五段86號前,121.525758,25.0840819999999
士林區,福林里,文林分隊,101-037,第2車,20:29-20:32,臺北市士林區中山北路五段282巷口,121.52588546276,25.08637624202
士林區,福林里,文林分隊,101-037,第2車,20:36-20:41,臺北市士林區福林路82號前,121.532895999999,25.09699
士林區,福林里,文林分隊,101-037,第2車,20:43-20:48,臺北市士林區至善路一段138巷2號前,121.559834499999,25.091075
士林區,福林里,文林分隊,101-037,第2車,20:49-20:54,臺北市士林區至善路一段138巷17號,121.541175,25.096432
士林區,福志里,文林分隊,101-037,第2車,20:58-21:03,臺北市士林區臨溪路72號,121.5461093,25.0945085
士林區,福志里,文林分隊,101-037,第2車,21:07-21:12,臺北市士林區福林路329號,121.536106,25.0992016
士林區,福志里,文林分隊,101-037,第2車,21:13-21:18,臺北市士林區福林路197號前,121.532895999999,25.09699
士林區,福志里,文林分隊,101-037,第2車,21:19-21:24,臺北市士林區雨農路19號前,121.532836,25.1011479999999
士林區,福志里,文林分隊,101-037,第2車,21:25-21:30,臺北市士林區雨農路9號前,121.532836,25.1011479999999
士林區,福志里,文林分隊,101-037,第2車,21:31-21:36,臺北市士林區志成街口,121.559834499999,25.091075
士林區,福志里,文林分隊,101-037,第2車,21:37-21:42,臺北市士林區中正路116號前,121.529131,25.096232
士林區,福志里,文林分隊,101-037,第2車,21:43-21:48,臺北市士林區中山北路五段620號前,121.527812,25.09667
士林區,福志里,文林分隊,101-037,第2車,21:49-21:54,臺北市士林區中山北路五段702號前,121.527601,25.097815
士林區,福林里,文林分隊,101-037,第2車,21:55-22:00,臺北市士林區中山北路五段754號前,121.527058999999,25.099542
士林區,福林里,文林分隊,101-037,第2車,22:02-22:08,臺北市士林區中山北路五段511號前,121.527835,25.093744
士林區,仁勇里,文林分隊,101-037,第3車,23:06-23:11,臺北市士林區文林路大南路口,121.559834499999,25.091075
士林區,仁勇里,文林分隊,101-037,第3車,23:12-23:19,臺北市士林區文林路101巷口,121.525685999999,25.0878769999999
士林區,仁勇里,文林分隊,101-037,第3車,23:20-23:25,臺北市士林區文林路51號,121.5256,25.0870169999999
士林區,仁勇里,文林分隊,101-037,第3車,23:26-23:31,臺北市士林區文林路.大東路口(基河路與文林路交接端附近),121.525429487228,25.0865268520342
士林區,福中里,後港分隊,101-038,第1車,16:30-17:00,臺北市士林區大南路與通河東街一段口,121.515476,25.089386
士林區,福中里,後港分隊,101-038,第1車,17:01-17:06,臺北市士林區大南路323號,121.517776,25.0889069999999
士林區,福中里,後港分隊,101-038,第1車,17:07-17:12,臺北市士林區福港街152號,121.517831,25.087519
士林區,福中里,後港分隊,101-038,第1車,17:13-17:24,臺北市士林區福港街218號,121.517553,25.08554
士林區,前港里,後港分隊,101-038,第1車,17:25-17:30,臺北市士林區華齡街168號,121.519616,25.086874
士林區,前港里,後港分隊,101-038,第1車,17:31-17:36,臺北市士林區後港街134巷口,121.520146999999,25.0867049999999
士林區,前港里,後港分隊,101-038,第1車,17:37-17:42,臺北市士林區前港街與後港街口(前港公園轉角),121.559834499999,25.091075
士林區,承德里,後港分隊,101-038,第1車,17:43-17:50,臺北市士林區後港街42巷口,121.522774,25.0840919999999
士林區,後港里,後港分隊,101-038,第2車,19:00-19:05,臺北市士林區大南路423號前,121.521499,25.088804
士林區,福中里,後港分隊,101-038,第2車,19:06-19:11,臺北市士林區大南路325號,121.517746,25.0889419999999
士林區,後港里,後港分隊,101-038,第2車,19:12-19:20,臺北市士林區大南路287號,121.518932,25.08875
士林區,前港里,後港分隊,101-038,第2車,19:21-19:26,臺北市士林區大南路與後港街口,121.520698070526,25.0884361822738
士林區,前港里,後港分隊,101-038,第2車,19:27-19:32,臺北市士林區後港街134巷口,121.520146999999,25.0867049999999
士林區,後港里,後港分隊,101-038,第2車,19:33-19:40,臺北市士林區承德路四段279號,121.519687,25.089831
士林區,後港里,後港分隊,101-038,第2車,19:41-19:50,臺北市士林區承德路四段297巷口,121.518648862838,25.0899811147096
士林區,後港里,後港分隊,101-038,第2車,19:51-19:56,臺北市士林區承德路四段325號,121.517698,25.090391
士林區,後港里,後港分隊,101-038,第2車,19:57-20:02,臺北市士林區中正路與士商路口(士商路116號),121.559834499999,25.091075
士林區,後港里,後港分隊,101-038,第2車,20:03-20:08,臺北市士林區士商路70號前,121.518097,25.093093
士林區,百齡里,後港分隊,101-038,第3車,21:05-21:10,臺北市士林區華齡街與前港街口,121.519357,25.0850599999999
士林區,前港里,後港分隊,101-038,第3車,21:11-21:16,臺北市士林區華齡街184號,121.519861,25.087436
士林區,前港里,後港分隊,101-038,第3車,21:17-21:22,臺北市士林區華齡街214號,121.519937,25.088498
士林區,前港里,後港分隊,101-038,第3車,21:23-21:28,臺北市士林區大南路233號,121.520892,25.088384
士林區,後港里,後港分隊,101-038,第3車,21:29-21:35,臺北市士林區福港街20號,121.518119,25.091027
士林區,後港里,後港分隊,101-038,第3車,21:36-21:41,臺北市士林區福港街91號,121.518424999999,25.0893389999999
士林區,福中里,後港分隊,101-038,第3車,21:42-21:47,臺北市士林區福港街112號,121.518036,25.088504
士林區,福中里,後港分隊,101-038,第3車,21:48-21:55,臺北市士林區福港街158號,121.517807,25.087395
士林區,福中里,後港分隊,101-038,第3車,21:56-22:05,臺北市士林區福港街218號,121.517553,25.08554
萬華區,富福里,昆明分隊,101-041,第1車,17:10-17:25,臺北市萬華區和平西路三段120號(行政中心),121.499821,25.034913
萬華區,仁德里,昆明分隊,101-041,第1車,17:35-17:38,臺北市萬華區桂林路41號,121.504467,25.038042
萬華區,富民里,昆明分隊,101-041,第1車,17:40-17:43,臺北市萬華區桂林路101號,121.501171,25.038547
萬華區,青山里,昆明分隊,101-041,第1車,17:45-17:49,臺北市萬華區桂林路137號前,121.501092,25.0384519999999
萬華區,柳鄉里,昆明分隊,101-041,第1車,17:56-17:58,臺北市萬華區環河南路二段48號前,121.4962867,25.0377234
萬華區,柳鄉里,昆明分隊,101-041,第1車,17:59-18:03,臺北市萬華區環河南路二段52號前,121.496185,25.0377809999999
萬華區,柳鄉里,昆明分隊,101-041,第1車,18:03-18:10,臺北市萬華區環河南路二段102號前,121.495346,25.037012
萬華區,柳鄉里,昆明分隊,101-041,第1車,18:10-18:16,臺北市萬華區環河南路二段132號前,121.4948622,25.0361169
萬華區,柳鄉里,昆明分隊,101-041,第1車,18:17-18:23,臺北市萬華區和平西路三段261號之7,121.494416,25.0358009999999
萬華區,柳鄉里,昆明分隊,101-041,第1車,18:24-18:27,臺北市萬華區和平西路三段359號前,121.492110999999,25.0356309999999
萬華區,柳鄉里,昆明分隊,101-041,第1車,18:28-18:31,臺北市萬華區桂林路246巷42弄33號,121.491932,25.0363809999999
萬華區,柳鄉里,昆明分隊,101-041,第1車,18:31-18:35,臺北市萬華區桂林路246巷42弄44號,121.492641,25.036922
萬華區,柳鄉里,昆明分隊,101-041,第1車,18:35-18:39,臺北市萬華區桂林路246巷16號,121.493537,25.037271
萬華區,柳鄉里,昆明分隊,101-041,第1車,18:39-18:41,臺北市萬華區桂林路244巷26號,121.49441,25.0376949999999
萬華區,柳鄉里,昆明分隊,101-041,第1車,18:42-18:46,臺北市萬華區桂林路242巷4號,121.495290999999,25.0380439999999
萬華區,青山里,昆明分隊,101-041,第2車,20:30-20:35,臺北市萬華區西園路一段134號前,121.559834499999,25.091075
萬華區,青山里,昆明分隊,101-041,第2車,20:35-20:38,臺北市萬華區西園路一段158號前,121.559834499999,25.091075
萬華區,青山里,昆明分隊,101-041,第2車,20:38-20:43,臺北市萬華區西園路一段192號,121.499163,25.036189
萬華區,青山里,昆明分隊,101-041,第2車,20:43-20:45,臺北市萬華區西園路一段216號前,121.559834499999,25.091075
萬華區,仁德里,昆明分隊,101-041,第2車,20:50-20:55,臺北市萬華區桂林路38號前,121.501092,25.0384519999999
萬華區,仁德里,昆明分隊,101-041,第2車,20:56-21:00,臺北市萬華區中華路一段212號前,121.5063,25.037569
萬華區,仁德里,昆明分隊,101-041,第2車,21:03-21:08,臺北市萬華區廣州街79號前,121.50301,25.0365825
萬華區,福音里,昆明分隊,101-041,第2車,21:09-21:12,臺北市萬華區昆明街285號前,121.504594999999,25.041857
萬華區,福音里,昆明分隊,101-041,第2車,21:12-21:16,臺北市萬華區廣州街90號對面,121.50301,25.0365825
萬華區,福音里,昆明分隊,101-041,第2車,21:16-21:19,臺北市萬華區廣州街116號對面,121.50301,25.0365825
萬華區,富民里,昆明分隊,101-041,第2車,21:22-21:27,臺北市萬華區廣州街207號前,121.50301,25.0365825
萬華區,青山里,昆明分隊,101-041,第2車,21:32-21:35,臺北市萬華區環河南路二段73號前,121.496526,25.0375909999999
萬華區,青山里,昆明分隊,101-041,第2車,21:36-21:44,臺北市萬華區桂林路164號前,121.501092,25.0384519999999
萬華區,青山里,昆明分隊,101-041,第2車,21:44-21:50,臺北市萬華區桂林路142號前,121.501092,25.0384519999999
大同區,永樂里,延平分隊,101-042,第1車,16:00-16:03,臺北市大同區西寧北路民生西路口,121.5089753,25.0568983
大同區,永樂里,延平分隊,101-042,第1車,16:04-16:08,臺北市大同區西寧北路86巷口,121.508878,25.0552199999999
大同區,永樂里,延平分隊,101-042,第1車,16:09-16:12,臺北市大同區西寧北路78號,121.508695,25.0545
大同區,永樂里,延平分隊,101-042,第1車,16:13-16:16,臺北市大同區西寧北路68號,121.508599,25.053609
大同區,玉泉里,延平分隊,101-042,第1車,16:17-16:20,臺北市大同區南京西路434巷口,121.508889999999,25.053374
大同區,玉泉里,延平分隊,101-042,第1車,16:24-16:28,臺北市大同區延平北路一段66巷口,121.511866,25.051565
大同區,玉泉里,延平分隊,101-042,第1車,16:29-16:32,臺北市大同區延平北路一段22號,121.511937,25.0503223
大同區,玉泉里,延平分隊,101-042,第1車,16:36-16:38,臺北市大同區忠孝西路二段13號,121.519153,25.046095
大同區,玉泉里,延平分隊,101-042,第1車,16:43-16:46,臺北市大同區西寧北路3巷口,121.508446,25.049633
大同區,朝陽里,延平分隊,101-042,第1車,16:49-16:53,臺北市大同區延平北路二段61巷口,121.51165,25.055475
大同區,朝陽里,延平分隊,101-042,第1車,16:54-16:57,臺北市大同區延平北路二段97號,121.511696,25.056587
大同區,南芳里,延平分隊,101-042,第1車,17:00-17:05,臺北市大同區涼州街安西街口,121.509797,25.0606329
大同區,大有里,延平分隊,101-042,第2車,18:50-18:53,臺北市大同區民生西路民樂街口,121.5107982,25.0569282999999
大同區,大有里,延平分隊,101-042,第2車,18:54-18:57,臺北市大同區民生西路迪化街口,121.509733,25.057048
大同區,大有里,延平分隊,101-042,第2車,19:00-19:03,臺北市大同區歸綏街忠和公園,121.508865,25.058107
大同區,大有里,延平分隊,101-042,第2車,19:05-19:09,臺北市大同區歸綏街民樂街口,121.510482999999,25.0581898999999
大同區,大有里,延平分隊,101-042,第2車,19:11-19:14,臺北市大同區延平北路二段144巷口,121.511465907096,25.0576646462695
大同區,永樂里,延平分隊,101-042,第2車,19:16-19:19,臺北市大同區延平北路二段60巷口,121.510914,25.055389
大同區,永樂里,延平分隊,101-042,第2車,19:20-19:23,臺北市大同區延平北路二段36巷口,121.511686,25.054915
大同區,永樂里,延平分隊,101-042,第2車,19:25-19:28,臺北市大同區延平北路甘谷街口,121.511785089969,25.0527637126028
大同區,玉泉里,延平分隊,101-042,第2車,19:30-19:33,臺北市大同區長安西路253號,121.51115,25.0521649999999
大同區,玉泉里,延平分隊,101-042,第2車,19:34-19:37,臺北市大同區長安西路287號,121.509506,25.052128
大同區,玉泉里,延平分隊,101-042,第2車,19:39-19:42,臺北市大同區長安西路甲天下,121.509292,25.052102
大同區,玉泉里,延平分隊,101-042,第2車,19:44-19:46,臺北市大同區長安西路貴德街口,121.508221,25.0521859999999
大同區,玉泉里,延平分隊,101-042,第2車,19:47-19:49,臺北市大同區環河北路一段83號,121.507475,25.0529639999999
大同區,永樂里,延平分隊,101-042,第2車,19:50-19:52,臺北市大同區環河北路一段141號,121.50778,25.0544949999999
大同區,大有里,延平分隊,101-042,第2車,19:54-19:57,臺北市大同區環河北路一段迪化街224巷底,121.508496701717,25.0595063941763
大同區,建功里,延平分隊,101-042,第3車,21:36-21:39,臺北市大同區延平北路一段17號,121.512167,25.0501289999999
大同區,建功里,延平分隊,101-042,第3車,21:40-21:43,臺北市大同區延平北路一段69巷口,121.512368,25.051362
大同區,朝陽里,延平分隊,101-042,第3車,21:47-21:50,臺北市大同區延平北路二段61巷口,121.51165,25.055475
大同區,延平里,延平分隊,101-042,第3車,21:53-21:56,臺北市大同區保安街78巷口,121.512024999999,25.059062
大同區,延平里,延平分隊,101-042,第3車,21:57-21:59,臺北市大同區保安街甘州街口,121.512744,25.0590729
大同區,延平里,延平分隊,101-042,第3車,22:02-22:05,臺北市大同區歸綏街甘州街口,121.512797,25.058291
大同區,延平里,延平分隊,101-042,第3車,22:06-22:09,臺北市大同區歸綏街209號,121.511899,25.058266
松山區,莊敬里,上塔悠分隊,101-043,第1車,16:45-16:48,臺北市松山區濱江街900巷5號,121.562867,25.070314
松山區,莊敬里,上塔悠分隊,101-043,第1車,16:57-17:00,臺北市松山區撫遠街405巷15號之1,121.567832,25.0679939999999
松山區,莊敬里,上塔悠分隊,101-043,第1車,17:03-17:30,臺北市松山區塔悠路351號(撫遠抽水站),121.5686642,25.0618264
松山區,莊敬里,上塔悠分隊,101-043,第1車,17:35-18:10,臺北市松山區民權東路四段121號(松指部),121.555843999999,25.062303
松山區,富錦里,上塔悠分隊,101-043,第1車,18:20-18:35,臺北市松山區三民路180巷1號,121.563247,25.062373
松山區,新益里,上塔悠分隊,101-043,第1車,18:40-19:05,臺北市松山區撫遠街259號(三民公園),121.567074,25.0609129999999
松山區,莊敬里,上塔悠分隊,101-043,第2車,20:40-21:10,臺北市松山區撫遠街379巷口,121.565824,25.06436
松山區,富泰里,上塔悠分隊,101-043,第2車,21:20-21:40,臺北市松山區民生東路五段186號(圓環邊),121.563775,25.058439
松山區,東榮里,上塔悠分隊,101-043,第2車,21:45-21:55,臺北市松山區民生東路五段27巷9弄口,121.556696,25.0593679999999
松山區,東榮里,上塔悠分隊,101-043,第2車,22:01-22:10,臺北市松山區光復北路199號,121.555186,25.0597859999999
中正區,新營里,南昌分隊,101-046,第1車,17:25-17:28,臺北市中正區杭州南路二段102號前,121.521715,25.028811
中正區,新營里,南昌分隊,101-046,第1車,17:29-17:33,臺北市中正區杭州南路二段54之1號前,121.522048,25.030408
中正區,新營里,南昌分隊,101-046,第1車,17:34-17:37,臺北市中正區金華街59號旁,121.525895,25.030303
中正區,新營里,南昌分隊,101-046,第1車,17:38-17:41,臺北市中正區金華街19號前,121.525895,25.030303
中正區,新營里,南昌分隊,101-046,第1車,17:42-17:45,臺北市中正區羅斯褔路一段25號前,121.518488,25.032841
中正區,新營里,南昌分隊,101-046,第1車,17:46-17:50,臺北市中正區羅斯福路一段7號旁,121.5179367,25.0335609999999
中正區,新營里,南昌分隊,101-046,第1車,17:51-17:53,臺北市中正區愛國東路22號前,121.522621,25.0324589999999
中正區,新營里,南昌分隊,101-046,第1車,17:54-17:57,臺北市中正區愛國東路60號旁,121.522621,25.0324589999999
中正區,新營里,南昌分隊,101-046,第1車,17:58-18:00,臺北市中正區愛國東路76號前,121.522621,25.0324589999999
中正區,新營里,南昌分隊,101-046,第1車,18:01-18:03,臺北市中正區愛國東路106號前,121.520858,25.032924
中正區,龍福里,南昌分隊,101-046,第1車,18:13-18:18,臺北市中正區羅斯福路一段8號前,121.518272,25.0322649999999
中正區,南福里,南昌分隊,101-046,第1車,18:19-18:23,臺北市中正區羅斯福路一段40號前,121.5191058,25.0312766999999
中正區,南福里,南昌分隊,101-046,第1車,18:24-18:28,臺北市中正區羅斯福路一段94號前,121.51992,25.030079
中正區,南福里,南昌分隊,101-046,第1車,18:29-18:33,臺北市中正區羅斯福路二段10號前,121.521019999999,25.02858
中正區,南福里,南昌分隊,101-046,第1車,18:34-18:38,臺北市中正區羅斯福路二段36號前,121.521525299999,25.0281185
中正區,南福里,南昌分隊,101-046,第1車,18:39-18:42,臺北市中正區羅斯褔路二段70號前,121.538828,25.005136
中正區,頂東里,南昌分隊,101-046,第2車,20:10-20:13,臺北市中正區羅斯福路二段140號前,121.522937,25.0258059999999
中正區,頂東里,南昌分隊,101-046,第2車,20:14-20:18,臺北市中正區羅斯福路三段16號前,121.525029,25.023235
中正區,頂東里,南昌分隊,101-046,第2車,20:19-20:23,臺北市中正區羅斯福路三段56號前,121.525741,25.0225399999999
中正區,頂東里,南昌分隊,101-046,第2車,20:24-20:28,臺北市中正區羅斯福路三段82號前,121.526473999999,25.0219869999999
中正區,頂東里,南昌分隊,101-046,第2車,20:29-20:33,臺北市中正區羅斯褔路三段98號前,121.538828,25.005136
中正區,螢雪里,南昌分隊,101-046,第2車,20:38-20:42,臺北市中正區水源路153號,121.515869,25.023758
中正區,螢雪里,南昌分隊,101-046,第2車,20:43-20:47,臺北市中正區水源路167之3號前,121.51482,25.024131
中正區,螢雪里,南昌分隊,101-046,第2車,20:48-20:52,臺北市中正區泉州街153號前,121.514543,25.028296
中正區,螢雪里,南昌分隊,101-046,第2車,20:53-20:57,臺北市中正區泉州街131之5號旁,121.514543,25.028296
中正區,頂東里,南昌分隊,101-046,第2車,21:07-21:11,臺北市中正區師大路144號前,121.525285,25.02103
中正區,頂東里,南昌分隊,101-046,第2車,21:12-21:16,臺北市中正區師大路170號前,121.525285,25.02103
中正區,頂東里,南昌分隊,101-046,第2車,21:17-21:21,臺北市中正區汀州路二段311號前,121.524744,25.0217519999999
中正區,頂東里,南昌分隊,101-046,第2車,21:22-21:27,臺北市中正區汀州路二段265號前,121.523818,25.022638
中正區,頂東里,南昌分隊,101-046,第2車,21:28-21:32,臺北市中正區汀州路二段243號前,121.523014,25.0231789999999
中正區,頂東里,南昌分隊,101-046,第2車,21:33-21:37,臺北市中正區汀州路二段193號旁,121.522162556648,25.0238182104708
中正區,板溪里,南昌分隊,101-046,第2車,21:38-21:42,臺北市中正區汀州路二段145號前,121.520598,25.024818
中正區,板溪里,南昌分隊,101-046,第2車,21:43-21:47,臺北市中正區汀州路二段125號前,121.519433,25.025084
中正區,螢圃里,南昌分隊,101-046,第2車,21:48-21:52,臺北市中正區汀州路二段97號前,121.518213,25.025362
中正區,螢雪里,南昌分隊,101-046,第2車,21:53-21:57,臺北市中正區汀州路二段53號前,121.515625,25.0259719999999
中正區,螢雪里,南昌分隊,101-046,第2車,21:58-22:02,臺北市中正區汀州路二段11號前,121.514481,25.026229
中正區,永功里,泉州分隊,101-047,第1車,17:30-17:35,臺北市中正區汀州路一段239號前,121.512628,25.0266479
中正區,永功里,泉州分隊,101-047,第1車,17:36-17:40,臺北市中正區汀州路一段207號前,121.511644,25.0270389999999
中正區,龍興里,泉州分隊,101-047,第1車,17:41-17:55,臺北市中正區汀州路一段230號對面,121.509991,25.0274658999999
中正區,龍興里,泉州分隊,101-047,第1車,17:56-17:59,臺北市中正區汀州路一段123號(永義宮),121.509497999999,25.0281869999999
中正區,忠勤里,泉州分隊,101-047,第1車,18:00-18:03,臺北市中正區汀州路一段67號前,121.508053,25.02984
中正區,廈安里,泉州分隊,101-047,第1車,18:04-18:07,臺北市中正區西藏路30號前,121.506964,25.0308899999999
中正區,廈安里,泉州分隊,101-047,第1車,18:08-18:11,臺北市中正區西藏路60號前,121.506099,25.030629
中正區,廈安里,泉州分隊,101-047,第1車,18:12-18:14,臺北市中正區中華路二段177號前,121.504301,25.030366
中正區,廈安里,泉州分隊,101-047,第1車,18:15-18:17,臺北市中正區中華路二段165號前,121.504255,25.03085
中正區,廈安里,泉州分隊,101-047,第1車,18:18-18:21,臺北市中正區中華路二段151號前,121.5041844,25.0313289999999
中正區,廈安里,泉州分隊,101-047,第1車,18:22-18:25,臺北市中正區中華路二段117號前,121.50488,25.0323789999999
中正區,廈安里,泉州分隊,101-047,第1車,18:26-18:29,臺北市中正區大埔街21巷9號旁,121.504917,25.032243
中正區,廈安里,泉州分隊,101-047,第1車,18:30-18:32,臺北市中正區汀州路一段58號,121.506245,25.031779
中正區,廈安里,泉州分隊,101-047,第1車,18:33-18:35,臺北市中正區莒光路76號前,121.505081,25.0314209
中正區,廈安里,泉州分隊,101-047,第1車,18:36-18:39,臺北市中正區莒光路91號前,121.5050256,25.0311181
中正區,廈安里,泉州分隊,101-047,第1車,18:40-18:42,臺北市中正區莒光路7號前,121.507459,25.03105
中正區,廈安里,泉州分隊,101-047,第1車,18:43-18:45,臺北市中正區和平西路二段106號前,121.508002,25.0309719999999
中正區,永功里,泉州分隊,101-047,第2車,20:00-20:03,臺北市中正區泉州街32號旁,121.514543,25.028296
中正區,永功里,泉州分隊,101-047,第2車,20:04-20:06,臺北市中正區泉州街32號,121.513327,25.025915
中正區,永功里,泉州分隊,101-047,第2車,20:07-20:10,臺北市中正區中華路二段481號前,121.511584,25.0244789999999
中正區,永功里,泉州分隊,101-047,第2車,20:11-20:24,臺北市中正區寧波西街225號前(古亭國中旁),121.510277,25.025437
中正區,永昌里,泉州分隊,101-047,第2車,20:25-20:28,臺北市中正區寧波西街234號旁,121.510847,25.0266869
中正區,龍興里,泉州分隊,101-047,第2車,20:30-20:33,臺北市中正區三元街100號前,121.512733,25.0276539999999
中正區,龍興里,泉州分隊,101-047,第2車,20:34-20:36,臺北市中正區三元街158號前,121.510425,25.0283209999999
中正區,永功里,泉州分隊,101-047,第2車,20:37-20:40,臺北市中正區三元街176號前,121.510425,25.0283209999999
中正區,永功里,泉州分隊,101-047,第2車,20:41-20:47,臺北市中正區三元街232號前,121.510425,25.0283209999999
中正區,永功里,泉州分隊,101-047,第2車,20:48-20:50,臺北市中正區三元街264號前,121.510425,25.0283209999999
中正區,永功里,泉州分隊,101-047,第2車,20:51-20:53,臺北市中正區泉州街18-1號前,121.514543,25.028296
中正區,永昌里,泉州分隊,101-047,第2車,20:56-20:59,臺北市中正區中華路二段439號前,121.509146599999,25.0249871
中正區,永昌里,泉州分隊,101-047,第2車,21:00-21:03,臺北市中正區中華路二段405號旁,121.508212,25.026059
中正區,永昌里,泉州分隊,101-047,第2車,21:04-21:07,臺北市中正區中華路二段377號前,121.507628,25.026461
中正區,永昌里,泉州分隊,101-047,第2車,21:08-21:11,臺北市中正區南海路112號前,121.512120999999,25.0313249999999
中正區,永昌里,泉州分隊,101-047,第2車,21:12-21:15,臺北市中正區南海路96號前,121.512120999999,25.0313249999999
中正區,龍興里,泉州分隊,101-047,第2車,21:16-21:19,臺北市中正區南海路70號前,121.512120999999,25.0313249999999
中正區,龍興里,泉州分隊,101-047,第2車,21:20-21:22,臺北市中正區三元街69號旁,121.510425,25.0283209999999
中正區,龍興里,泉州分隊,101-047,第2車,21:24-21:27,臺北市中正區和平西路二段96號前,121.510732,25.0296136999999
中正區,龍興里,泉州分隊,101-047,第2車,21:28-21:31,臺北市中正區和平西路二段68號前,121.511537,25.0291239999999
中正區,永功里,泉州分隊,101-047,第2車,21:32-21:34,臺北市中正區和平西路二段50號前,121.512409,25.0284979999999
中正區,永功里,泉州分隊,101-047,第2車,21:35-21:37,臺北市中正區和平西路二段34號前,121.513006,25.028285
中正區,永功里,泉州分隊,101-047,第2車,21:38-21:40,臺北市中正區和平西路二段10號前,121.514325,25.028255
中正區,黎明里,博愛分隊,101-048,第1車,17:10-17:15,臺北市中正區襄陽路19號,121.515396,25.043564
中正區,黎明里,博愛分隊,101-048,第1車,17:16-17:20,臺北市中正區館前路42號,121.514889,25.044442
中正區,光復里,博愛分隊,101-048,第1車,17:22-17:30,臺北市中正區重慶南路一段38號,121.513094,25.0448039999999
中正區,光復里,博愛分隊,101-048,第1車,17:46-17:51,臺北市中正區中華路一段41號,121.509514,25.044857
中正區,光復里,博愛分隊,101-048,第1車,17:52-17:57,臺北市中正區中華路一段25號,121.509891,25.0462729999999
中正區,光復里,博愛分隊,101-048,第1車,17:58-18:03,臺北市中正區中華路一段1號,121.510694,25.047549
中正區,光復里,博愛分隊,101-048,第1車,18:04-18:10,臺北市中正區延平南路16號,121.510861,25.046876
中正區,光復里,博愛分隊,101-048,第1車,18:11-18:15,臺北市中正區延平南路36號,121.510724,25.0464009999999
中正區,光復里,博愛分隊,101-048,第1車,18:16-18:24,臺北市中正區延平南路42號,121.510563,25.0458859999999
中正區,光復里,博愛分隊,101-048,第1車,18:25-18:32,臺北市中正區延平南路107號,121.509666,25.041978
中正區,光復里,博愛分隊,101-048,第1車,18:35-18:43,臺北市中正區重慶南路一段60號,121.513074,25.0438259999999
中正區,光復里,博愛分隊,101-048,第1車,18:45-18:50,臺北市中正區重慶南路一段96號,121.513077999999,25.0427
中正區,光復里,博愛分隊,101-048,第2車,20:23-20:35,臺北市中正區重慶南路一段44號,121.513114,25.044584
中正區,黎明里,博愛分隊,101-048,第2車,20:37-20:44,臺北市中正區館前路65號,121.5151035,25.0444199999999
中正區,黎明里,博愛分隊,101-048,第2車,20:50-21:00,臺北市中正區公園路13號,121.517414,25.0455
中正區,黎明里,博愛分隊,101-048,第2車,21:02-21:07,臺北市中正區中山北路一段30號,121.519896,25.0468028999999
中正區,黎明里,博愛分隊,101-048,第2車,21:08-21:12,臺北市中正區中山北路一段06號,121.51961,25.046296
中正區,黎明里,博愛分隊,101-048,第2車,21:14-21:18,臺北市中正區青島西路07號,121.5183925,25.0447458
中正區,黎明里,博愛分隊,101-048,第2車,21:19-21:34,臺北市中正區公園路30號(信陽街口),121.5168924,25.0444105999999
中正區,建國里,博愛分隊,101-048,第2車,21:37-21:45,臺北市中正區衡陽路118號,121.509799,25.0420979999999
中正區,建國里,博愛分隊,101-048,第2車,21:46-21:55,臺北市中正區中華路一段65號(憲兵隊),121.50825,25.04099
中正區,建國里,博愛分隊,101-048,第2車,21:55-22:00,臺北市中正區延平南路156號,121.508381,25.038366
大安區,群賢里,臥龍分隊,101-049,第1車,17:50-18:00,臺北市大安區和平東路二段311巷2號,121.545013,25.024965
大安區,芳和里,臥龍分隊,101-049,第1車,18:10-18:25,臺北市大安區臥龍街131巷13弄1號,121.551678999999,25.0197189999999
大安區,芳和里,臥龍分隊,101-049,第1車,18:33-18:40,臺北市大安區樂業街70號,121.550642,25.021968
大安區,芳和里,臥龍分隊,101-049,第1車,18:42-18:55,臺北市大安區樂業街118巷1號,121.552034999999,25.020762
大安區,黎孝里,臥龍分隊,101-049,第1車,18:57-19:07,臺北市大安區和平東路三段228巷37號,121.553571,25.0208739999999
大安區,群英里,臥龍分隊,101-049,第2車,20:20-20:30,臺北市大安區復興南路二段151巷30弄1號(新增),121.545765,25.0280029999999
大安區,黎孝里,臥龍分隊,101-049,第2車,20:40-21:00,臺北市大安區和平東路三段308巷15弄12號,121.555995999999,25.019435
大安區,黎元里,臥龍分隊,101-049,第2車,21:04-21:08,臺北市大安區臥龍街211號,121.553531,25.018276
大安區,黎元里,臥龍分隊,101-049,第2車,21:09-21:13,臺北市大安區臥龍街199號,121.552756,25.0180329999999
大安區,芳和里,臥龍分隊,101-049,第2車,21:14-21:19,臺北市大安區臥龍街131巷1號(新增),121.55087,25.019017
大安區,芳和里,臥龍分隊,101-049,第2車,21:22-21:30,臺北市大安區基隆路二段289號(新增),121.549747999999,25.0214329999999
大安區,芳和里,臥龍分隊,101-049,第2車,21:32-21:40,臺北市大安區基隆路二段211號,121.551466,25.0231169999999
大安區,黎孝里,臥龍分隊,101-049,第2車,21:45-21:50,臺北市大安區富陽街172號(慈仁八村),121.556907,25.017285
大安區,黎和里,臥龍分隊,101-049,第2車,21:55-22:15,臺北市大安區臥龍街271號前,121.556625,25.018674
大安區,昌隆里,新生分隊,101-050,第1車,17:40-18:05,臺北市大安區忠孝東路三段215號(臺北富邦銀行)前,121.5396146,25.0418644
大安區,民炤里,新生分隊,101-050,第1車,18:25-18:35,臺北市大安區新生南路一段163號前,121.5329674,25.0342787
大安區,民炤里,新生分隊,101-050,第1車,18:36-18:40,臺北市大安區新生南路一段155號前,121.5329309,25.0350971
大安區,民炤里,新生分隊,101-050,第1車,18:41-18:55,臺北市大安區新生南路一段143號前,121.533,25.0360729999999
大安區,民炤里,新生分隊,101-050,第1車,18:56-19:05,臺北市大安區新生南路一段141號前,121.533008,25.036268
大安區,民輝里,新生分隊,101-050,第2車,20:25-20:30,臺北市大安區忠孝東路三段86號前,121.535895999999,25.041622
大安區,誠安里,新生分隊,101-050,第2車,20:40-21:00,臺北市大安區安東街40號前,121.542481,25.044646
大安區,誠安里,新生分隊,101-050,第2車,21:03-21:05,臺北市大安區復興南路一段132號前,121.543567,25.0428929999999
大安區,誠安里,新生分隊,101-050,第2車,21:06-21:10,臺北市大安區復興南路一段152號前,121.543543,25.0423289999999
大安區,誠安里,新生分隊,101-050,第2車,21:11-21:15,臺北市大安區忠孝東路三段287號,121.542880999999,25.041851
大安區,誠安里,新生分隊,101-050,第2車,21:16-21:24,臺北市大安區忠孝東路三段249號前,121.541434,25.0417939999999
大安區,誠安里,新生分隊,101-050,第2車,21:25-21:30,臺北市大安區忠孝東路三段235號前,121.540589999999,25.041886
大安區,民輝里,新生分隊,101-050,第2車,21:36-21:43,臺北市大安區八德路二段1號前（光華商場旁）,121.533206,25.044549
大安區,民輝里,新生分隊,101-050,第2車,21:44-21:55,臺北市大安區八德路二段28號前,121.534542,25.044778
大安區,群賢里,臥龍分隊,101-051,第1車,17:50-18:00,臺北市大安區復興南路二段237號,121.543826,25.0260129999999
大安區,群賢里,臥龍分隊,101-051,第1車,18:02-18:07,臺北市大安區復興南路二段175號,121.543735,25.0272229999999
大安區,群英里,臥龍分隊,101-051,第1車,18:10-18:30,臺北市大安區復興南路二段151巷30弄1號,121.545765,25.0280029999999
大安區,群英里,臥龍分隊,101-051,第1車,18:35-19:20,臺北市大安區和平東路二段311巷50號前,121.544963999999,25.026084
大安區,群英里,臥龍分隊,101-051,第2車,20:35-20:50,臺北市大安區四維路170巷20號,121.547025,25.0281319999999
大安區,群賢里,臥龍分隊,101-051,第2車,20:51-21:00,臺北市大安區敦化南路二段126號(鳳雛公園),121.548319,25.0261719999999
大安區,群賢里,臥龍分隊,101-051,第2車,21:01-21:04,臺北市大安區敦化南路二段148號,121.548299,25.025451
大安區,群賢里,臥龍分隊,101-051,第2車,21:07-21:20,臺北市大安區和平東路二段365號(新增),121.546552,25.0248479999999
大安區,群賢里,臥龍分隊,101-051,第2車,21:21-21:33,臺北市大安區和平東路二段315號(新增),121.545194,25.0249139999999
大安區,群賢里,臥龍分隊,101-051,第2車,21:43-21:50,臺北市大安區和平東路三段22號,121.547344,25.024456
大安區,虎嘯里,臥龍分隊,101-051,第2車,21:52-21:55,臺北市大安區和平東路三段66號,121.5497321,25.0242849
大安區,虎嘯里,臥龍分隊,101-051,第2車,21:57-22:07,臺北市大安區和平東路三段78號,121.550749999999,25.0242919999999
大安區,虎嘯里,臥龍分隊,101-051,第2車,22:10-22:15,臺北市大安區基隆路二段192號,121.551841,25.02401
大安區,虎嘯里,臥龍分隊,101-051,第2車,22:15-22:20,臺北市大安區基隆路二段228號(新增),121.551081999999,25.023332
大安區,虎嘯里,臥龍分隊,101-051,第2車,22:21-22:23,臺北市大安區基隆路二段272號,121.549718,25.022098
中山區,中吉里,南京分隊,101-052,第1車,16:25-16:34,臺北市中山區松江路200號前,121.533053,25.057661
中山區,中吉里,南京分隊,101-052,第1車,16:35-16:40,臺北市中山區松江路168號前,121.533053,25.057661
中山區,中吉里,南京分隊,101-052,第1車,16:41-16:46,臺北市中山區松江路148號前,121.533053,25.057661
中山區,中吉里,南京分隊,101-052,第1車,16:48-16:59,臺北市中山區南京東路二段81號前,121.531662,25.0522899999999
中山區,中吉里,南京分隊,101-052,第1車,17:00-17:05,臺北市中山區南京東路二段53號前,121.529736,25.052519
中山區,中原里,南京分隊,101-052,第1車,17:06-17:11,臺北市中山區南京東路二段23號前,121.528851,25.0522099999999
中山區,中原里,南京分隊,101-052,第1車,17:12-17:17,臺北市中山區新生北路二段17號前,121.5278,25.0537999999999
中山區,中原里,南京分隊,101-052,第2車,18:25-18:30,臺北市中山區長春路93號前,121.5289656,25.0549563999999
中山區,中原里,南京分隊,101-052,第2車,18:31-18:43,臺北市中山區中原街17號(中原公園),121.528942,25.0558529999999
中山區,中原里,南京分隊,101-052,第2車,18:44-18:50,臺北市中山區新生北路二段71號前,121.528049999999,25.056552
中山區,中原里,南京分隊,101-052,第2車,18:51-18:55,臺北市中山區新生北路二段79號前,121.528026,25.057061
中山區,中原里,南京分隊,101-052,第2車,18:56-19:03,臺北市中山區民生東路二段36號前,121.528972,25.0578679999999
中山區,中原里,南京分隊,101-052,第2車,19:04-19:08,臺北市中山區吉林路176號前,121.530233999999,25.0580479999999
中山區,中原里,南京分隊,101-052,第2車,19:09-19:13,臺北市中山區吉林路150號前,121.530233999999,25.0580479999999
中山區,中原里,南京分隊,101-052,第2車,19:15-19:20,臺北市中山區南京東路二段39號,121.529264,25.052271
中山區,中原里,南京分隊,101-052,第2車,19:21-19:26,臺北市中山區新生北路二段31之1號前,121.527854,25.05421
中山區,中吉里,南京分隊,101-052,第3車,20:40-20:59,臺北市中山區長春路137巷6號前,121.531468,25.0555249999999
中山區,中吉里,南京分隊,101-052,第3車,21:00-21:08,臺北市中山區一江街42號,121.531398999999,25.0539239999999
中山區,中吉里,南京分隊,101-052,第3車,21:09-21:19,臺北市中山區一江街31號前(一江公園),121.531600999999,25.053342
中山區,中吉里,南京分隊,101-052,第3車,21:21-21:25,臺北市中山區吉林路61號前,121.530233999999,25.0580479999999
中山區,中吉里,南京分隊,101-052,第3車,21:26-21:30,臺北市中山區吉林路77之5號前,121.530233999999,25.0580479999999
中山區,中吉里,南京分隊,101-052,第3車,21:31-21:40,臺北市中山區吉林路125號前,121.530233999999,25.0580479999999
中山區,中吉里,南京分隊,101-052,第3車,21:41-21:45,臺北市中山區民生東路二段92號,121.530734,25.057828
中山區,中吉里,南京分隊,101-052,第3車,21:46-21:50,臺北市中山區民生東路二段132號,121.531948,25.0576359999999
中山區,大佳里,大直分隊,101-053,第1車,16:45-16:53,臺北市中山區民族東路125號前,121.539075999999,25.0683289999999
中山區,大佳里,大直分隊,101-053,第1車,16:54-17:00,臺北市中山區民族東路95號前,121.536299,25.068114
中山區,大佳里,大直分隊,101-053,第1車,17:02-17:04,臺北市中山區松江路579號前,121.533743,25.069966
中山區,大佳里,大直分隊,101-053,第1車,17:05-17:14,臺北市中山區濱江街152號前,121.537143,25.0722869999999
中山區,大佳里,大直分隊,101-053,第1車,17:15-17:18,臺北市中山區濱江街228號前,121.5408797,25.0722752
中山區,大佳里,大直分隊,101-053,第1車,17:20-17:24,臺北市中山區濱江街262號前,121.5432782,25.0721677999999
中山區,大佳里,大直分隊,101-053,第1車,17:25-17:28,臺北市中山區濱江街358號前,121.546688,25.0722969999999
中山區,劍潭里,大直分隊,101-053,第2車,19:50-19:53,臺北市中山區北安路85號前(碧海山莊),121.529933,25.0786359999999
中山區,劍潭里,大直分隊,101-053,第2車,19:55-20:05,臺北市中山區北安路55號前(中央電台),121.528775,25.078112
中山區,劍潭里,大直分隊,101-053,第2車,20:11-20:20,臺北市中山區北安路400巷1弄2號前,121.540983,25.0789
中山區,劍潭里,大直分隊,101-053,第2車,20:32-20:52,臺北市中山區通北街65巷2弄2號前,121.539227,25.0831909999999
中山區,劍潭里,大直分隊,101-053,第2車,20:54-21:10,臺北市中山區通北街89號旁(118巷對面),121.538435,25.0828409999999
中山區,劍潭里,大直分隊,101-053,第2車,21:11-21:40,臺北市中山區通北街144號前,121.537604,25.0850459999999
中山區,集英里,圓山分隊,101-054,第1車,16:30-16:40,臺北市中山區中山北路三段34號前,121.522002,25.065327
中山區,集英里,圓山分隊,101-054,第1車,16:41-16:50,臺北市中山區中山北路三段2號前,121.521991,25.063977
中山區,集英里,圓山分隊,101-054,第1車,16:51-17:05,臺北市中山區中山北路二段132號前,121.522574,25.062016
中山區,集英里,圓山分隊,101-054,第1車,17:06-17:15,臺北市中山區中山北路二段96號前,121.522657,25.059484
中山區,圓山里,圓山分隊,101-054,第2車,18:40-18:50,臺北市中山區民族東路28號前,121.536299,25.068114
中山區,圓山里,圓山分隊,101-054,第2車,18:52-19:00,臺北市中山區新生北路三段88巷1號前,121.527424,25.067976
中山區,圓山里,圓山分隊,101-054,第2車,19:05-19:15,臺北市中山區德惠街13號前,121.527957,25.066811
中山區,恆安里,圓山分隊,101-054,第2車,19:20-19:30,臺北市中山區民權東路一段13號,121.523399599999,25.0628896999999
中山區,圓山里,圓山分隊,101-054,第3車,21:10-21:25,臺北市中山區林森北路628號前,121.525512,25.056647
中山區,圓山里,圓山分隊,101-054,第3車,21:26-21:35,臺北市中山區雙城街38號前,121.524308,25.065842
中山區,圓山里,圓山分隊,101-054,第3車,21:36-21:45,臺北市中山區德惠街5號前,121.527957,25.066811
中山區,恆安里,圓山分隊,101-054,第3車,21:50-22:00,臺北市中山區農安街12號前,121.529089,25.064841
中山區,集英里,圓山分隊,101-055,第1車,16:30-16:35,臺北市中山區民權西路13號前,121.521806,25.063001
中山區,集英里,圓山分隊,101-055,第1車,16:37-16:48,臺北市中山區撫順街28號前,121.520722,25.063603
中山區,集英里,圓山分隊,101-055,第1車,16:50-17:00,臺北市中山區撫順街21號對面,121.520722,25.063603
中山區,集英里,圓山分隊,101-055,第1車,17:05-17:15,臺北市中山區天祥路58號前,121.520949,25.062417
中山區,集英里,圓山分隊,101-055,第2車,19:00-19:10,臺北市中山區民生西路7號前,121.521663,25.0579579999999
中山區,集英里,圓山分隊,101-055,第2車,19:11-19:16,臺北市中山區民生西路45巷39號前,121.52088,25.057862
中山區,集英里,圓山分隊,101-055,第2車,19:20-19:30,臺北市中山區錦西街34號前,121.518805,25.060248
中山區,集英里,圓山分隊,101-055,第2車,19:35-19:45,臺北市中山區錦西街7號前,121.518805,25.060248
中山區,集英里,圓山分隊,101-055,第3車,21:10-21:20,臺北市中山區天祥路18號前,121.520949,25.062417
中山區,晴光里,圓山分隊,101-055,第3車,21:30-21:40,臺北市中山區林森北路575號(台灣銀行前),121.525807,25.0650936999999
中山區,晴光里,圓山分隊,101-055,第3車,21:41-21:50,臺北市中山區林森北路609號前,121.525512,25.056647
中山區,晴光里,圓山分隊,101-055,第3車,21:51-22:00,臺北市中山區德惠街13號前,121.527957,25.066811
信義區,景新里,吳興分隊,101-604,第1車,18:00-18:30,臺北市信義區莊敬路239巷10號對面(信義國小後門),121.5612508,25.0310504999999
信義區,六合里,吳興分隊,101-604,第2車,20:00-20:03,臺北市信義區信義路五段150巷477號,121.577788,25.0218479999999
信義區,六合里,吳興分隊,101-604,第2車,20:05-20:07,臺北市信義區信義路五段150巷471號,121.578999999999,25.0202999999999
信義區,六合里,吳興分隊,101-604,第2車,20:08-20:10,臺北市信義區景雲街24之1號,121.5754191,25.018877
信義區,六合里,吳興分隊,101-604,第2車,20:11-20:16,臺北市信義區祥雲街35號,121.575131,25.018609
信義區,六合里,吳興分隊,101-604,第2車,20:17-20:22,臺北市信義區紫雲街49號,121.574884999999,25.016793
信義區,六合里,吳興分隊,101-604,第2車,20:23-20:28,臺北市信義區紫雲街51號,121.574816,25.01671
信義區,六合里,吳興分隊,101-604,第2車,20:29-20:32,臺北市信義區紫雲街70號~75號打鈴,121.575041,25.0178699999999
信義區,六合里,吳興分隊,101-604,第2車,20:33-20:38,臺北市信義區瑞雲街40號,121.576676,25.016258
信義區,六合里,吳興分隊,101-604,第2車,20:39-20:41,臺北市信義區景雲街46號,121.57545,25.017505
信義區,六合里,吳興分隊,101-604,第2車,20:42-20:45,臺北市信義區景雲街15號,121.575422,25.018695
信義區,六合里,吳興分隊,101-604,第2車,20:46-20:50,臺北市信義區景雲街22號,121.5754191,25.018877
信義區,三犁里,吳興分隊,101-604,第2車,21:07-21:12,臺北市信義區松智路31巷口,121.565343,25.0309959999999
信義區,景新里,吳興分隊,101-604,第2車,21:15-21:19,臺北市信義區松勤街47號(松勤路信義國小正對面),121.563315,25.0321789999999
信義區,景新里,吳興分隊,101-604,第2車,21:20-21:28,臺北市信義區松勤街50號前(莊敬路松勤路口),121.5617917,25.0319651999999
士林區,福德里,文林分隊,102-057,第1車,18:30-18:37,臺北市士林區基河路303號對前,121.521533,25.091342
士林區,福佳里,文林分隊,102-057,第1車,18:42-18:48,臺北市士林區文林路490號前,121.524615,25.0950385
士林區,福佳里,文林分隊,102-057,第1車,18:50-19:00,臺北市士林區文林路587巷1號前,121.521078,25.0980549999999
士林區,福佳里,文林分隊,102-057,第1車,19:01-19:10,臺北市士林區美崙街62巷17號旁,121.522209,25.097505
士林區,福佳里,文林分隊,102-057,第1車,19:12-19:17,臺北市士林區文林路587巷29號前,121.521078,25.0980549999999
士林區,福佳里,文林分隊,102-057,第1車,19:18-19:25,臺北市士林區文昌路179巷9號對面,121.519527999999,25.0984219
士林區,福佳里,文林分隊,102-057,第1車,19:26-19:31,臺北市士林區文昌路155巷11號旁(代清業者時段),121.559834499999,25.091075
士林區,福佳里,文林分隊,102-057,第1車,19:35-19:40,臺北市士林區文昌路71號前,121.559834499999,25.091075
士林區,福佳里,文林分隊,102-057,第1車,19:41-19:46,臺北市士林區中正路408號前,121.520743999999,25.0940189999999
士林區,福德里,文林分隊,102-057,第1車,19:49-19:54,臺北市士林區基河路238號前,121.521533,25.091342
士林區,福德里,文林分隊,102-057,第1車,19:55-20:00,臺北市士林區基河路236號前,121.521533,25.091342
士林區,福佳里,文林分隊,102-057,第2車,21:00-21:10,臺北市士林區文林路531號前,121.524615,25.0950385
士林區,福佳里,文林分隊,102-057,第2車,21:11-21:16,臺北市士林區文林路497號前,121.524615,25.0950385
士林區,福佳里,文林分隊,102-057,第2車,21:17-21:22,臺北市士林區文林路453號,121.524221999999,25.09569
士林區,福德里,文林分隊,102-057,第2車,21:30-21:40,臺北市士林區大東路152號對面,121.525525,25.0900199999999
士林區,仁勇里,文林分隊,102-057,第2車,21:41-21:46,臺北市士林區大東路117號前,121.525525,25.0900199999999
士林區,仁勇里,文林分隊,102-057,第2車,21:47-21:52,臺北市士林區大東路93號前,121.525525,25.0900199999999
士林區,仁勇里,文林分隊,102-057,第2車,21:53-22:00,臺北市士林區大東路75號前,121.525525,25.0900199999999
士林區,仁勇里,文林分隊,102-057,第2車,22:01-22:06,臺北市士林區小北街1號前,121.52562,25.090575
士林區,仁勇里,文林分隊,102-057,第2車,22:07-22:12,臺北市士林區文林路265號對面,121.524615,25.0950385
士林區,仁勇里,文林分隊,102-057,第3車,23:50-24:20,臺北市士林區文林路113號前,121.524615,25.0950385
士林區,義信里,文林分隊,102-057,第3車,24:21-24:26,臺北市士林區文林路16號對面,121.524615,25.0950385
士林區,仁勇里,文林分隊,102-057,第3車,24:27-24:32,臺北市士林區基河路13號,121.524741,25.0864547
士林區,義信里,文林分隊,102-057,第3車,24:33-01:00,臺北市士林區基河路100號對面,121.521533,25.091342
士林區,明勝里,後港分隊,102-058,第1車,16:30-17:00,臺北市士林區承德路四段7號,121.521933,25.0792408999999
士林區,承德里,後港分隊,102-058,第1車,17:01-17:09,臺北市士林區承德路四段35號,121.522835,25.080918
士林區,承德里,後港分隊,102-058,第1車,17:10-17:19,臺北市士林區承德路四段80巷口(代清業者時段),121.559834499999,25.091075
士林區,承德里,後港分隊,102-058,第1車,17:20-17:25,臺北市士林區承德路四段56號,121.5225681,25.0815468
士林區,福華里,後港分隊,102-058,第1車,17:26-17:34,臺北市士林區承德路四段42號,121.522274,25.0809399999999
士林區,福華里,後港分隊,102-058,第1車,17:35-17:45,臺北市士林區承德路四段40巷73號,121.521141,25.081472
士林區,福華里,後港分隊,102-058,第2車,18:50-19:10,臺北市士林區華齡街口(靠近2巷口公園邊),121.559834499999,25.091075
士林區,百齡里,後港分隊,102-058,第2車,19:11-19:25,臺北市士林區華齡街38號,121.519493999999,25.0836539999999
士林區,明勝里,後港分隊,102-058,第3車,20:30-20:35,臺北市士林區承德路四段3巷，通河街2巷30號,121.522747,25.0783489999999
士林區,明勝里,後港分隊,102-058,第3車,20:36-20:41,臺北市士林區承德路四段1巷25號,121.522319,25.078157
士林區,承德里,後港分隊,102-058,第3車,20:42-20:54,臺北市士林區承德路四段58巷28號,121.521517,25.081976
士林區,明勝里,後港分隊,102-058,第3車,20:55-21:00,臺北市士林區承德路四段28號,121.52198,25.0804079999999
士林區,明勝里,後港分隊,102-058,第3車,21:01-21:06,臺北市士林區通河街78號,121.520461,25.080914
士林區,明勝里,後港分隊,102-058,第3車,21:07-21:15,臺北市士林區承德路四段10巷46號,121.519988,25.080093
士林區,明勝里,後港分隊,102-058,第3車,21:16-21:25,臺北市士林區承德路四段10巷2號,121.521479,25.079471
士林區,明勝里,後港分隊,102-058,第3車,21:26-21:35,臺北市士林區承德路四段6巷2號,121.521249,25.079056
士林區,明勝里,後港分隊,102-058,第3車,21:36-21:41,臺北市士林區通河街19號,121.523347,25.080058
士林區,明勝里,後港分隊,102-058,第3車,21:42-22:00,臺北市士林區承德路四段35號,121.522835,25.080918
士林區,承德里,後港分隊,102-058,第3車,22:01-22:20,臺北市士林區劍潭路與後港街口,121.522822380065,25.0837915509603
士林區,社子里,社子分隊,102-059,第1車,16:30-16:40,臺北市士林區延平北路六段81號,121.508623,25.088111
士林區,永倫里,社子分隊,102-059,第1車,16:43-16:53,臺北市士林區延平北路六段378號,121.500818,25.0910839999999
士林區,永倫里,社子分隊,102-059,第1車,16:54-16:59,臺北市士林區延平北路六段466號,121.498883,25.093163
士林區,永倫里,社子分隊,102-059,第1車,17:01-17:06,臺北市士林區通河西街二段228號,121.500995,25.093715
士林區,永倫里,社子分隊,102-059,第1車,17:07-17:17,臺北市士林區通河西街二段221號,121.501841,25.093664
士林區,永倫里,社子分隊,102-059,第1車,17:18-17:24,臺北市士林區通河西街二段198號,121.503523,25.093433
士林區,永倫里,社子分隊,102-059,第1車,17:25-17:31,臺北市士林區通河西街二段181號,121.504743,25.0932379999999
士林區,社園里,社子分隊,102-059,第1車,17:32-17:38,臺北市士林區通河西街二段138號,121.505959,25.0931099999999
士林區,社園里,社子分隊,102-059,第1車,17:39-17:45,臺北市士林區通河西街二段122號,121.50677,25.0929259999999
士林區,社園里,社子分隊,102-059,第1車,17:46-17:52,臺北市士林區通河西街二段107號,121.508037,25.092713
士林區,社子里,社子分隊,102-059,第1車,17:53-17:58,臺北市士林區通河西街二段93號,121.508881,25.092478
士林區,社子里,社子分隊,102-059,第1車,17:59-18:05,臺北市士林區通河西街二段60號,121.51042,25.091397
士林區,社子里,社子分隊,102-059,第1車,18:06-18:11,臺北市士林區通河西街二段54號,121.510824,25.090937
士林區,社子里,社子分隊,102-059,第1車,18:13-18:18,臺北市士林區延平北路六段122號,121.507855,25.08922
士林區,社園里,社子分隊,102-059,第1車,18:19-18:24,臺北市士林區延平北路六段180號,121.505951,25.089582
士林區,永倫里,社子分隊,102-059,第1車,18:25-18:30,臺北市士林區延平北路六段208號,121.505022,25.089496
士林區,社新里,社子分隊,102-059,第2車,20:30-20:45,臺北市士林區社子街27號,121.507993,25.0876729999999
士林區,社新里,社子分隊,102-059,第2車,20:46-21:10,臺北市士林區社子街65號,121.506761,25.0875069999999
士林區,社新里,社子分隊,102-059,第2車,21:11-21:23,臺北市士林區社子街99號,121.505591,25.087775
士林區,社新里,社子分隊,102-059,第2車,21:24-21:36,臺北市士林區社子街127號,121.505077,25.0886789999999
士林區,社新里,社子分隊,102-059,第2車,21:37-21:48,臺北市士林區延平北路六段152號對面,121.506836,25.089666
士林區,社新里,社子分隊,102-059,第2車,21:49-21:54,臺北市士林區延平北路六段111號,121.50833,25.0885089999999
士林區,社新里,社子分隊,102-059,第2車,21:55-22:00,臺北市士林區中正路618號前,121.508768,25.086856
士林區,蘭雅里,蘭雅分隊,102-060,第1車,16:20-16:40,臺北市士林區德行東路109巷77號對面(代清業者時段),121.528498,25.110156
士林區,聖山里,蘭雅分隊,102-060,第1車,16:45-16:50,臺北市士林區忠義街147號前,121.531735,25.105996
士林區,聖山里,蘭雅分隊,102-060,第1車,16:51-16:55,臺北市士林區忠義街98號對面送車,121.531735,25.105996
士林區,德行里,蘭雅分隊,102-060,第2車,18:30-18:33,臺北市士林區中山北路五段841號,121.52546,25.1020469999999
士林區,名山里,蘭雅分隊,102-060,第2車,18:36-18:40,臺北市士林區至誠路二段49號前,121.528245,25.1015023
士林區,名山里,蘭雅分隊,102-060,第2車,18:41-18:44,臺北市士林區至誠路二段35號旁,121.528974,25.1016869999999
士林區,名山里,蘭雅分隊,102-060,第2車,18:45-18:50,臺北市士林區至誠路二段303號,121.528617999999,25.101673
士林區,名山里,蘭雅分隊,102-060,第2車,18:51-18:54,臺北市士林區至誠路二段20號,121.5297819,25.1022272
士林區,名山里,蘭雅分隊,102-060,第2車,18:55-19:00,臺北市士林區至誠路二段82號前,121.527801999999,25.101557
士林區,蘭雅里,蘭雅分隊,102-060,第2車,19:13-19:16,臺北市士林區德行東路127號前,121.532792,25.109285
士林區,蘭雅里,蘭雅分隊,102-060,第2車,19:17-19:20,臺北市士林區德行東路111號,121.531799,25.1089969999999
士林區,蘭雅里,蘭雅分隊,102-060,第2車,19:21-19:23,臺北市士林區德行東路5號前,121.532792,25.109285
士林區,蘭雅里,蘭雅分隊,102-060,第2車,19:28-19:34,臺北市士林區中山北路六段188號前,121.525307,25.1077769999999
士林區,蘭雅里,蘭雅分隊,102-060,第2車,19:35-19:40,臺北市士林區中山北路六段238號前,121.525498,25.1090529999999
士林區,蘭雅里,蘭雅分隊,102-060,第2車,19:41-19:44,臺北市士林區中山北路六段314號前,121.52581,25.110925
士林區,蘭興里,蘭雅分隊,102-060,第2車,19:47-19:54,臺北市士林區中山北路六段275號旁,121.525277,25.1100059999999
士林區,蘭興里,蘭雅分隊,102-060,第2車,19:55-20:00,臺北市士林區中山北路六段193號前,121.524936,25.1078389999999
士林區,蘭興里,蘭雅分隊,102-060,第2車,20:01-20:05,臺北市士林區中山北路六段155號送車,121.524756999999,25.106838
士林區,聖山里,蘭雅分隊,102-060,第3車,21:27-21:33,臺北市士林區忠義街147號,121.533248,25.108433
士林區,岩山里,蘭雅分隊,102-060,第3車,21:35-21:40,臺北市士林區芝玉路一段197巷1號旁,121.533395,25.107551
士林區,岩山里,蘭雅分隊,102-060,第3車,21:41-22:10,臺北市士林區芝玉路一段沿線,121.5333305,25.1077033999999
士林區,蘭興里,蘭雅分隊,102-061,第1車,16:40-16:50,臺北市士林區德行西路77號右對面,121.522364999999,25.1049189999999
士林區,德華里,蘭雅分隊,102-061,第1車,16:52-16:57,臺北市士林區福華路159號前,121.522797,25.102884
士林區,德華里,蘭雅分隊,102-061,第1車,16:58-17:03,臺北市士林區福國路108號,121.521638999999,25.1020429999999
士林區,德華里,蘭雅分隊,102-061,第1車,17:04-17:09,臺北市士林區文林路738號送車,121.524615,25.0950385
士林區,蘭興里,蘭雅分隊,102-061,第2車,18:40-18:50,臺北市士林區磺溪街57號(代清業者時段),121.52316,25.108414
士林區,蘭興里,蘭雅分隊,102-061,第2車,18:51-18:53,臺北市士林區磺溪街88號,121.523289,25.10838
士林區,蘭興里,蘭雅分隊,102-061,第2車,18:55-19:07,臺北市士林區克強路8號前,121.523898,25.108913
士林區,德行里,蘭雅分隊,102-061,第2車,19:09-19:14,臺北市士林區中山北路六段49號前,121.524643999999,25.1039889999999
士林區,蘭興里,蘭雅分隊,102-061,第2車,19:21-19:26,臺北市士林區德行西路109號前,121.522364999999,25.1049189999999
士林區,蘭興里,蘭雅分隊,102-061,第2車,19:27-19:32,臺北市士林區德行西路135號前,121.522364999999,25.1049189999999
士林區,德華里,蘭雅分隊,102-061,第2車,19:33-19:38,臺北市士林區文林路755號,121.519537799999,25.1032532
士林區,德華里,蘭雅分隊,102-061,第2車,19:39-19:44,臺北市士林區文林路731號,121.519574,25.101603
士林區,德華里,蘭雅分隊,102-061,第2車,19:45-19:50,臺北市士林區文林路683號,121.521981999999,25.1010789999999
士林區,德華里,蘭雅分隊,102-061,第2車,19:51-19:56,臺北市士林區文林路663號,121.522488,25.100714
士林區,德華里,蘭雅分隊,102-061,第2車,19:57-19:59,臺北市士林區文林路619號,121.5231508,25.0995789
士林區,德華里,蘭雅分隊,102-061,第2車,20:00-20:02,臺北市士林區文昌路211號,121.520193,25.0999559999999
士林區,德行里,蘭雅分隊,102-061,第2車,20:08-20:13,臺北市士林區福國路45號送車,121.523487,25.102038
士林區,名山里,蘭雅分隊,102-061,第3車,21:40-21:45,臺北市士林區陽明醫院對面(代清業者時段),121.559834499999,25.091075
士林區,德行里,蘭雅分隊,102-061,第3車,21:55-22:00,臺北市士林區福國路15巷31號,121.5242451,25.1018517
士林區,德行里,蘭雅分隊,102-061,第3車,22:02-22:07,臺北市士林區福國路48號,121.523796,25.1022649999999
士林區,德行里,蘭雅分隊,102-061,第3車,22:08-22:13,臺北市士林區福華路130號,121.522836,25.103068
士林區,德行里,蘭雅分隊,102-061,第3車,22:14-22:19,臺北市士林區福華路160號,121.5226838,25.1039058
士林區,德行里,蘭雅分隊,102-061,第3車,22:20-22:25,臺北市士林區福華路164-1號,121.522611299999,25.1043245
士林區,岩山里,蘭雅分隊,102-062,第1車,16:00-16:05,臺北市士林區仰德大道一段12巷1號旁,121.538876,25.100918
士林區,岩山里,蘭雅分隊,102-062,第1車,16:07-16:14,臺北市士林區至誠路一段16號,121.536998,25.101281
士林區,岩山里,蘭雅分隊,102-062,第1車,16:16-16:23,臺北市士林區至誠路一段62巷70號對面,121.535534,25.102421
士林區,岩山里,蘭雅分隊,102-062,第1車,16:24-16:29,臺北市士林區至誠路一段150號旁,121.534013,25.1014869999999
士林區,岩山里,蘭雅分隊,102-062,第1車,16:30-16:32,臺北市士林區雨聲街167號,121.5335865,25.1024017
士林區,名山里,蘭雅分隊,102-062,第1車,16:34-16:39,臺北市士林區雨聲街81號,121.533605499999,25.1018915999999
士林區,名山里,蘭雅分隊,102-062,第1車,16:40-16:45,臺北市士林區雨聲街61號,121.528587,25.1029009999999
士林區,名山里,蘭雅分隊,102-062,第1車,16:50-16:54,臺北市士林區忠誠路一段21號對面(靠公園側),121.526872999999,25.104106
士林區,名山里,蘭雅分隊,102-062,第1車,16:55-17:00,臺北市士林區中山北路五段848號對面(靠公園側),121.526439799999,25.1019149
士林區,忠誠里,蘭雅分隊,102-062,第2車,18:30-18:32,臺北市士林區忠誠路一段16巷1號,121.525588,25.1056029999999
士林區,忠誠里,蘭雅分隊,102-062,第2車,18:35-18:40,臺北市士林區中山北路六段90號前,121.525011,25.105065
士林區,忠誠里,蘭雅分隊,102-062,第2車,18:41-18:50,臺北市士林區德行東路6號（陽信大樓）,121.525167,25.1064149999999
士林區,忠誠里,蘭雅分隊,102-062,第2車,18:51-18:54,臺北市士林區德行東路46巷口（石油新村）,121.526266,25.106634
士林區,忠誠里,蘭雅分隊,102-062,第2車,18:55-19:04,臺北市士林區德行東路74巷口,121.527418999999,25.1059139999999
士林區,忠誠里,蘭雅分隊,102-062,第2車,19:05-19:10,臺北市士林區德行東路100號前,121.532792,25.109285
士林區,聖山里,蘭雅分隊,102-062,第2車,19:11-19:18,臺北市士林區德行東路200號,121.531595,25.108702
士林區,芝山里,蘭雅分隊,102-062,第2車,19:19-19:25,臺北市士林區德行東路252號,121.534288,25.1096499999999
士林區,芝山里,蘭雅分隊,102-062,第2車,19:26-19:34,臺北市士林區德行東路286號前,121.532792,25.109285
士林區,芝山里,蘭雅分隊,102-062,第2車,19:35-19:41,臺北市士林區德行東路356號前,121.532792,25.109285
士林區,忠誠里,蘭雅分隊,102-062,第2車,19:43-19:53,臺北市士林區德行東路132巷7弄1號旁,121.52925,25.1074939999999
士林區,忠誠里,蘭雅分隊,102-062,第2車,19:53-19:58,臺北市士林區忠誠路一段98號前,121.528103,25.105101
士林區,忠誠里,蘭雅分隊,102-062,第2車,19:59-20:05,臺北市士林區忠誠路一段56號前,121.527033,25.1045699999999
士林區,名山里,蘭雅分隊,102-062,第3車,21:20-21:25,臺北市士林區忠誠路一段39號,121.527722999999,25.1043629999999
士林區,聖山里,蘭雅分隊,102-062,第3車,21:26-21:35,臺北市士林區忠誠路一段149號前,121.52996,25.1066049999999
士林區,聖山里,蘭雅分隊,102-062,第3車,21:36-21:42,臺北市士林區忠誠路一段169號前,121.530313,25.1074288999999
士林區,名山里,蘭雅分隊,102-062,第3車,21:43-21:47,臺北市士林區忠義街1號(雨農國小後門、雨聲街側),121.530278999999,25.104638
松山區,美仁里,中崙分隊,102-063,第1車,17:15-17:40,臺北市松山區南京東路四段118號,121.555173999999,25.0501879999999
松山區,復勢里,中崙分隊,102-063,第1車,17:55-18:05,臺北市松山區八德路三段233號(頂好超市),121.557184,25.048261
松山區,美仁里,中崙分隊,102-063,第1車,18:08-18:16,臺北市松山區北寧路58號(台北體院斜對面),121.552775999999,25.0499879999999
松山區,美仁里,中崙分隊,102-063,第1車,18:18-18:25,臺北市松山區南京東路四段56號,121.5536728,25.0514946999999
松山區,中崙里,中崙分隊,102-063,第2車,20:00-20:20,臺北市松山區八德路二段364號(中崙派出所對面),121.54591,25.0479699999999
松山區,中正里,中崙分隊,102-063,第2車,20:22-20:30,臺北市松山區八德路二段449號(臺安醫院對面),121.5473078,25.0483028999999
松山區,復勢里,中崙分隊,102-063,第2車,20:35-20:50,臺北市松山區光復北路78號,121.5579255,25.0501055999999
松山區,復建里,中崙分隊,102-063,第2車,20:52-20:57,臺北市松山區光復南路34號,121.557655,25.046503
松山區,復源里,中崙分隊,102-063,第2車,21:00-21:10,臺北市松山區市民大道四段269號,121.555199,25.0448249999999
松山區,敦化里,中崙分隊,102-063,第2車,21:15-21:25,臺北市松山區市民大道四段141號,121.550622,25.0448729999999
松山區,精忠里,東社分隊,102-064,第1車,17:30-17:45,臺北市松山區光復北路199號,121.555186,25.0597859999999
松山區,精忠里,東社分隊,102-064,第1車,17:50-18:15,臺北市松山區民生東路四段131巷3號斜對面,121.554104983806,25.0586001021615
松山區,精忠里,東社分隊,102-064,第1車,18:20-18:30,臺北市松山區富錦街12巷8號,121.550638,25.059784
松山區,中華里,東社分隊,102-064,第1車,18:35-18:45,臺北市松山區敦化北路199巷19號,121.549802,25.0568959999999
松山區,龍田里,東社分隊,102-064,第1車,18:50-19:00,臺北市松山區光復北路155巷口,121.5558,25.0553999999999
松山區,民福里,東社分隊,102-064,第2車,20:30-20:40,臺北市松山區民權東路三段193號,121.548995,25.062106
松山區,民福里,東社分隊,102-064,第2車,20:45-21:05,臺北市松山區民權東路三段107號,121.545138359069,25.0622616751135
松山區,民福里,東社分隊,102-064,第2車,21:10-21:30,臺北市松山區五常街370號,121.545297,25.0642159999999
松山區,東光里,東社分隊,102-064,第2車,21:45-22:10,臺北市松山區健康路170號旁(長壽公園),121.558227,25.0533208999999
松山區,自強里,松山分隊,102-065,第1車,17:10-17:45,臺北市松山區健康路303號,121.565122,25.0543879999999
松山區,安平里,松山分隊,102-065,第2車,19:15-19:35,臺北市松山區健康路290號,121.565348,25.053953
松山區,安平里,松山分隊,102-065,第2車,19:40-20:00,臺北市松山區寶清街26號(寶清公園旁),121.56804,25.05181
松山區,安平里,松山分隊,102-065,第2車,20:05-20:25,臺北市松山區南京東路五段269號,121.565594,25.051596
松山區,吉祥里,松山分隊,102-065,第2車,20:35-20:50,臺北市松山區八德路四段21號,121.5580514,25.0480063
松山區,鵬程里,松山分隊,102-065,第2車,21:25-21:35,臺北市松山區塔悠路110號,121.568893,25.060552
松山區,安平里,松山分隊,102-065,第2車,21:40-22:00,臺北市松山區寶清街123號,121.567476,25.054154
內湖區,西康里,西湖分隊,102-066,第1車,17:20-17:45,臺北市內湖區環山路一段28巷17號對面,121.564006,25.0856749999999
內湖區,港富里,西湖分隊,102-066,第1車,18:00-18:30,臺北市內湖區港墘路9號,121.578398,25.083469
內湖區,麗山里,西湖分隊,102-066,第2車,19:50-20:10,臺北市內湖區內湖路一段411巷12號,121.5711925,25.0826226
內湖區,西安里,西湖分隊,102-066,第2車,20:15-20:30,臺北市內湖區環山路一段62號,121.566593,25.086513
內湖區,西湖里,西湖分隊,102-066,第3車,21:40-22:20,臺北市內湖區內湖路一段285巷19號,121.5667,25.0828999999999
大同區,民權里,建成分隊,102-067,第1車,16:20-16:25,臺北市大同區民權西路144巷10弄雙連國小後,121.515872,25.06232
大同區,雙連里,建成分隊,102-067,第1車,16:30-16:34,臺北市大同區錦西街120之1號、興城街口,121.517503,25.0600619999999
大同區,雙連里,建成分隊,102-067,第1車,16:35-16:36,臺北市大同區承德路二段134號（臨停）,121.517900999999,25.059239
大同區,雙連里,建成分隊,102-067,第1車,16:37-16:42,臺北市大同區承德路二段106號萬全街口,121.517967,25.0585179999999
大同區,星明里,建成分隊,102-067,第1車,16:43-16:47,臺北市大同區承德路二段30號,121.517968999999,25.055696
大同區,光能里,建成分隊,102-067,第1車,16:49-16:54,臺北市大同區承德路二段3號(建成公園),121.517955599999,25.0537452
大同區,光能里,建成分隊,102-067,第1車,16:55-16:59,臺北市大同區承德路二段39號,121.518437,25.0546669999999
大同區,光能里,建成分隊,102-067,第1車,17:00-17:03,臺北市大同區承德路二段77號,121.518392,25.055882
大同區,光能里,建成分隊,102-067,第1車,17:04-17:06,臺北市大同區承德路二段97號,121.518378,25.0564509999999
大同區,光能里,建成分隊,102-067,第1車,17:07-17:09,臺北市大同區承德路二段131號,121.518416,25.057161
大同區,雙連里,建成分隊,102-067,第1車,17:10-17:14,臺北市大同區承德路二段143號前,121.518384,25.0578299999999
大同區,民權里,建成分隊,102-067,第1車,17:16-17:17,臺北市大同區承德路二段239號天橋下(週五臨停),121.5186328,25.0627172999999
大同區,雙連里,建成分隊,102-067,第2車,19:10-19:15,臺北市大同區民生西路63號三文眼鏡,121.520159,25.0577569999999
大同區,雙連里,建成分隊,102-067,第2車,19:16-19:20,臺北市大同區萬全街5號,121.520071,25.0587069999999
大同區,雙連里,建成分隊,102-067,第2車,19:21-19:23,臺北市大同區萬全街3巷16號之1,121.520131,25.059006
大同區,雙連里,建成分隊,102-067,第2車,19:24-19:25,臺北市大同區錦西街52巷13號,121.520038,25.059708
大同區,民權里,建成分隊,102-067,第2車,19:29-19:35,臺北市大同區民權西路144巷19弄、雙連國小後,121.516005,25.0617209999999
大同區,民權里,建成分隊,102-067,第2車,19:36-19:40,臺北市大同區錦西街53巷口,121.515917,25.060922
大同區,民權里,建成分隊,102-067,第2車,19:41-19:45,臺北市大同區保安街1之4號財福大樓,121.512853,25.059152
大同區,民權里,建成分隊,102-067,第2車,19:46-19:48,臺北市大同區重慶北路二段189號,121.51375,25.0599969999999
大同區,民權里,建成分隊,102-067,第2車,19:49-19:55,臺北市大同區寧夏路161、163號間對面,121.515429,25.057565
大同區,民權里,建成分隊,102-067,第2車,19:56-19:58,臺北市大同區民權西路190號、蘭州街44號口,121.514583,25.0626889999999
大同區,民權里,建成分隊,102-067,第2車,19:59-20:03,臺北市大同區民權西路118號,121.516746,25.0622079999999
大同區,雙連里,建成分隊,102-067,第2車,20:12-20:16,臺北市大同區重慶北路二段民生西路口,121.513791382312,25.0570644928851
大同區,雙連里,建成分隊,102-067,第2車,20:17-20:20,臺北市大同區重慶北路二段歸綏街口,121.513718962669,25.0581991933679
大同區,建泰里,建成分隊,102-067,第3車,21:35-21:40,臺北市大同區南京西路64巷口志仁補校,121.518607,25.0518989999999
大同區,建泰里,建成分隊,102-067,第3車,21:41-21:43,臺北市大同區南京西路32號捷運邊,121.515057,25.053849
大同區,建泰里,建成分隊,102-067,第3車,21:46-21:50,臺北市大同區長安西路建成醫院,121.519403999999,25.0502499999999
大同區,建泰里,建成分隊,102-067,第3車,21:51-21:55,臺北市大同區長安西路53巷口,121.517570614814,25.0508125178885
大同區,建泰里,建成分隊,102-067,第3車,21:56-21:59,臺北市大同區承德路一段41巷口統聯客運,121.517664999999,25.051209
大同區,建泰里,建成分隊,102-067,第3車,22:00-22:03,臺北市大同區承德路一段77巷口,121.518161,25.0521169999999
大同區,光能里,建成分隊,102-067,第3車,22:04-22:07,臺北市大同區承德路二段3號建成公園,121.517955599999,25.0537452
大同區,光能里,建成分隊,102-067,第3車,22:08-22:10,臺北市大同區承德路二段39號,121.518437,25.0546669999999
大同區,星明里,建成分隊,102-067,第3車,22:12-22:15,臺北市大同區太原路156之6號、平陽街口,121.516388,25.055018
大同區,星明里,建成分隊,102-067,第3車,22:16-22:18,臺北市大同區南京西路107巷口郵局前,121.51571,25.0543049999999
大同區,星明里,建成分隊,102-067,第3車,22:19-22:22,臺北市大同區重慶北路二段59號,121.514223,25.055579
大同區,星明里,建成分隊,102-067,第3車,22:23-22:27,臺北市大同區重慶北路二段73巷口,121.514505,25.0560949999999
松山區,民有里,東社分隊,102-068,第1車,18:30-19:30,臺北市松山區民權東路三段140巷口,121.546685999999,25.0609989999999
松山區,民有里,東社分隊,102-068,第2車,21:00-22:00,臺北市松山區民權東路三段140巷口(二次收集),121.546685999999,25.0609989999999
松山區,精忠里,東社分隊,102-068,第2車,22:06-22:15,臺北市松山區民生東路四段131巷3號斜對面,121.554086208343,25.0586219698762
大同區,鄰江里,蘭州分隊,102-070,第1車,16:50-16:54,臺北市大同區延平北路四段116號,121.510958,25.0720120999999
大同區,鄰江里,蘭州分隊,102-070,第1車,16:55-16:56,臺北市大同區延平北路四段66號,121.5108,25.0705509999999
大同區,鄰江里,蘭州分隊,102-070,第1車,16:57-17:02,臺北市大同區延平北路四段48號,121.510745,25.069969
大同區,鄰江里,蘭州分隊,102-070,第1車,17:03-17:05,臺北市大同區延平北路四段20號,121.510754,25.069227
大同區,國順里,蘭州分隊,102-070,第1車,17:06-17:10,臺北市大同區民族西路、迪化街二段220號,121.5108424,25.068669
大同區,國順里,蘭州分隊,102-070,第1車,17:11-17:15,臺北市大同區延平北路三段116號之2,121.510861,25.0670199999999
大同區,國順里,蘭州分隊,102-070,第1車,17:16-17:17,臺北市大同區延平北路三段104巷口,121.510981599999,25.0664906999999
大同區,國順里,蘭州分隊,102-070,第1車,17:18-17:21,臺北市大同區延平北路三段82號、昌吉街口,121.5109211,25.0658591
大同區,景星里,蘭州分隊,102-070,第1車,17:22-17:24,臺北市大同區延平北路三段、伊寧街口,121.511090397834,25.0646427321876
大同區,景星里,蘭州分隊,102-070,第1車,17:25-17:27,臺北市大同區延平北路三段18號巷口,121.511036,25.0638499999999
大同區,老師里,蘭州分隊,102-070,第2車,19:30-19:34,臺北市大同區重慶北路三段322巷口,121.513772606849,25.075541551625
大同區,老師里,蘭州分隊,102-070,第2車,19:35-19:36,臺北市大同區重慶北路三段310號,121.513572999999,25.073954
大同區,老師里,蘭州分隊,102-070,第2車,19:37-19:39,臺北市大同區重慶北路三段296巷口,121.513702869415,25.0735154066924
大同區,老師里,蘭州分隊,102-070,第2車,19:40-19:45,臺北市大同區重慶北路三段278號之2、哈密街口,121.513715,25.072803
大同區,鄰江里,蘭州分隊,102-070,第2車,19:47-19:50,臺北市大同區重慶北路三段252巷口,121.513681411743,25.0712948688284
大同區,鄰江里,蘭州分隊,102-070,第2車,19:51-19:53,臺北市大同區重慶北三段236巷口,121.5113064,25.0627242999999
大同區,國慶里,蘭州分隊,102-070,第2車,19:54-19:56,臺北市大同區重慶北路三段200巷口,121.513491,25.069524
大同區,國慶里,蘭州分隊,102-070,第2車,19:57-20:00,臺北市大同區重慶北路三段152巷口,121.513686,25.0681739999999
大同區,國慶里,蘭州分隊,102-070,第2車,20:01-20:03,臺北市大同區重慶北路三段136巷口,121.513654589653,25.0676943050212
大同區,國慶里,蘭州分隊,102-070,第2車,20:04-20:06,臺北市大同區重慶北路三段96號,121.513462,25.0666289999999
大同區,隆和里,蘭州分隊,102-070,第2車,20:07-20:08,臺北市大同區重慶北路三段、昌吉街口,121.513622403144,25.0658964130292
大同區,隆和里,蘭州分隊,102-070,第2車,20:09-20:12,臺北市大同區重慶北路三段、伊寧街口,121.513434399999,25.0642813
大同區,隆和里,蘭州分隊,102-070,第3車,21:52-21:56,臺北市大同區民權西路、延平北路口,121.511294,25.063516
大同區,隆和里,蘭州分隊,102-070,第3車,21:57-22:00,臺北市大同區延平北路三段17巷口,121.511163999999,25.0638049999999
大同區,隆和里,蘭州分隊,102-070,第3車,22:01-22:03,臺北市大同區延平北路三段、景化街口,121.51110112667,25.0651189380494
大同區,國慶里,蘭州分隊,102-070,第3車,22:05-22:08,臺北市大同區延平北路三段63號,121.5110664,25.0659393
大同區,國慶里,蘭州分隊,102-070,第3車,22:09-22:13,臺北市大同區延平北路三段85號,121.51105,25.0673719999999
大同區,國慶里,蘭州分隊,102-070,第3車,22:14-22:15,臺北市大同區延平北路三段107號,121.510998,25.068057
大同區,鄰江里,蘭州分隊,102-070,第3車,22:16-22:20,臺北市大同區延平北路四段19號,121.510972,25.069288
大同區,鄰江里,蘭州分隊,102-070,第3車,22:21-22:24,臺北市大同區延平北路四段93號,121.51101,25.07084
信義區,西村里,三張犁分隊,87-953,第1車,18:00-18:40,臺北市信義區基隆路一段380巷5號旁(中興公園),121.559689,25.034634
信義區,中興里,三張犁分隊,87-953,第1車,18:45-19:00,臺北市信義區基隆路二段72號前,121.558162999999,25.030932
信義區,興隆里,三張犁分隊,87-953,第2車,21:00-21:25,臺北市信義區忠孝東路四段556號,121.563,25.0415999999999
信義區,新仁里,三張犁分隊,87-953,第2車,21:30-21:50,臺北市信義區忠孝東路四段553巷48號旁,121.562929999999,25.0443649999999
信義區,新仁里,三張犁分隊,87-953,第2車,21:55-22:00,臺北市信義區忠孝東路四段563號,121.564049999999,25.0415889999999
中山區,成功里,大直分隊,87-955,第1車,17:00-17:04,臺北市中山區明水路709號,121.551351,25.085353
中山區,金泰里,大直分隊,87-955,第1車,17:10-17:13,臺北市中山區植福路215號對面,121.5582273,25.083919
中山區,金泰里,大直分隊,87-955,第1車,17:15-17:20,臺北市中山區樂群二路266巷28號旁(中430公園對面),121.561806,25.078575
中山區,金泰里,大直分隊,87-955,第1車,17:23-17:38,臺北市中山區植福路288號旁(樂群二路265巷中間),121.5615447,25.0806046
中山區,金泰里,大直分隊,87-955,第1車,17:42-17:50,臺北市中山區敬業三路162巷109號前,121.5596409,25.079484
中山區,金泰里,大直分隊,87-955,第1車,17:52-18:00,臺北市中山區敬業三路162巷71號前,121.5574349,25.0786203
中山區,金泰里,大直分隊,87-955,第1車,18:02-18:10,臺北市中山區敬業三路162巷36號前,121.557646,25.0784
中山區,金泰里,大直分隊,87-955,第1車,18:12-18:20,臺北市中山區敬業三路162巷9號前,121.557046,25.079256
中山區,成功里,大直分隊,87-955,第2車,19:45-19:55,臺北市中山區北安路608巷5號前,121.549639,25.082539
中山區,成功里,大直分隊,87-955,第2車,20:00-20:15,臺北市中山區北安路630巷8號,121.549679,25.082653
中山區,成功里,大直分隊,87-955,第2車,20:17-20:20,臺北市中山區北安路630巷25弄3號前,121.55033,25.082741
中山區,成功里,大直分隊,87-955,第2車,20:22-20:30,臺北市中山區北安路588巷23弄34號前(公園旁),121.550602,25.080967
中山區,成功里,大直分隊,87-955,第2車,20:33-20:36,臺北市中山區明水路672巷46號前,121.552277,25.083461
中山區,北安里,大直分隊,87-955,第2車,20:40-20:50,臺北市中山區北安路821巷2弄1號前,121.556351,25.085266
中山區,北安里,大直分隊,87-955,第2車,20:51-20:56,臺北市中山區北安路821巷4弄8號前,121.556093,25.085519
中山區,北安里,大直分隊,87-955,第2車,20:58-21:08,臺北市中山區北安路779號旁,121.553609499999,25.0856999999999
中山區,北安里,大直分隊,87-955,第2車,21:09-21:12,臺北市中山區北安路759巷3號前,121.552860999999,25.086077
中山區,金泰里,大直分隊,87-955,第2車,21:42-21:50,臺北市中山區敬業三路162巷92號後,121.5596348,25.0783911
中山區,金泰里,大直分隊,87-955,第2車,21:51-22:00,臺北市中山區敬業三路178號後,121.556327,25.0799449999999
大安區,錦華里,和平分隊,87-957,第1車,17:50-17:58,臺北市大安區和平東路一段39號旁,121.523850999999,25.027083
大安區,錦華里,和平分隊,87-957,第1車,18:00-18:07,臺北市大安區杭州南路二段91號旁,121.522047,25.0286049999999
大安區,錦華里,和平分隊,87-957,第1車,18:10-18:17,臺北市大安區潮州街58號旁,121.523495,25.029235
大安區,錦華里,和平分隊,87-957,第1車,18:18-18:25,臺北市大安區潮州街96號旁,121.525122,25.0289989999999
大安區,錦安里,和平分隊,87-957,第1車,18:27-18:34,臺北市大安區金山南路二段161號,121.5264481,25.0291943
大安區,錦安里,和平分隊,87-957,第1車,18:35-18:40,臺北市大安區金山南路二段121號,121.526782999999,25.0302909999999
大安區,錦泰里,和平分隊,87-957,第2車,20:00-20:05,臺北市大安區杭州南路二段63號旁,121.522261,25.029993
大安區,錦泰里,和平分隊,87-957,第2車,20:07-20:14,臺北市大安區金華街46號旁,121.523084,25.030671
大安區,錦泰里,和平分隊,87-957,第2車,20:15-20:20,臺北市大安區金華街137號前,121.524906,25.0306
大安區,光明里,和平分隊,87-957,第2車,20:26-20:35,臺北市大安區杭州南路二段23號旁,121.523602999999,25.03388
大安區,光明里,和平分隊,87-957,第2車,20:37-20:42,臺北市大安區信義路二段44巷20弄1號前,121.525161999999,25.0243679999999
大安區,錦安里,和平分隊,87-957,第2車,20:46-20:50,臺北市大安區金華街146號前,121.529293999999,25.0297176
大安區,錦安里,和平分隊,87-957,第3車,21:55-22:00,臺北市大安區和平東路一段141巷與潮州街口,121.530537083745,25.0282305867717
大安區,錦安里,和平分隊,87-957,第3車,22:05-22:12,臺北市大安區金山南路二段161號,121.5264481,25.0291943
大安區,錦泰里,和平分隊,87-957,第3車,22:16-22:20,臺北市大安區杭州南路二段57號,121.522589,25.031604
大安區,光明里,和平分隊,87-957,第3車,22:23-22:33,臺北市大安區信義路二段42號,121.5257268,25.0346963
大安區,光明里,和平分隊,87-957,第3車,22:35-22:45,臺北市大安區金山南路二段12號,121.526989,25.0334849999999
大安區,錦華里,和平分隊,87-957,第3車,22:48-22:55,臺北市大安區金山南路二段154號,121.526077,25.02868
大安區,芳和里,臥龍分隊,87-958,第1車,18:06-18:14,臺北市大安區和平東路三段212號,121.552999,25.021236
大安區,黎孝里,臥龍分隊,87-958,第1車,18:15-18:27,臺北市大安區和平東路三段268號前,121.555663,25.021242
大安區,黎和里,臥龍分隊,87-958,第1車,18:29-18:34,臺北市大安區和平東路三段348號,121.557446,25.01949
大安區,黎和里,臥龍分隊,87-958,第1車,18:36-18:45,臺北市大安區臥龍街262號,121.557894,25.017594
大安區,黎和里,臥龍分隊,87-958,第1車,18:46-18:51,臺北市大安區臥龍街272之1號,121.558373,25.016899
大安區,黎和里,臥龍分隊,87-958,第1車,18:52-18:55,臺北市大安區臥龍街306號,121.55973,25.0167439999999
大安區,黎和里,臥龍分隊,87-958,第1車,18:56-19:01,臺北市大安區和平東路三段510號,121.560531,25.015388
大安區,黎和里,臥龍分隊,87-958,第1車,19:02-19:07,臺北市大安區和平東路三段590號,121.562184,25.014285
大安區,黎和里,臥龍分隊,87-958,第1車,19:08-19:13,臺北市大安區和平東路三段606巷口,121.561730999999,25.0117879999999
大安區,虎嘯里,臥龍分隊,87-958,第2車,20:33-20:42,臺北市大安區和平東路三段56號(新增),121.54839,25.0244213
大安區,虎嘯里,臥龍分隊,87-958,第2車,20:46-20:51,臺北市大安區樂業街19號,121.55004,25.023684
大安區,虎嘯里,臥龍分隊,87-958,第2車,20:52-20:58,臺北市大安區樂業街50號,121.549733,25.022821
大安區,芳和里,臥龍分隊,87-958,第2車,21:02-21:10,臺北市大安區樂業街118巷1號,121.552034999999,25.020762
大安區,黎元里,臥龍分隊,87-958,第2車,21:13-21:18,臺北市大安區辛亥路三段157巷12號,121.549925,25.017284
大安區,黎元里,臥龍分隊,87-958,第2車,21:19-21:25,臺北市大安區臥龍街188巷1號,121.550932,25.018066
大安區,黎元里,臥龍分隊,87-958,第2車,21:26-21:32,臺北市大安區臥龍街188巷45號(頂好超市),121.5506441,25.0168560999999
大安區,臥龍里,臥龍分隊,87-958,第2車,21:37-21:44,臺北市大安區復興南路二段381號,121.5434662,25.0222066
大安區,臥龍里,臥龍分隊,87-958,第2車,21:45-21:50,臺北市大安區復興南路二段339號,121.543654,25.023476
大安區,臥龍里,臥龍分隊,87-958,第2車,21:51-21:55,臺北市大安區復興南路二段293-3號,121.543679,25.024642
大安區,臥龍里,臥龍分隊,87-958,第2車,21:58-22:03,臺北市大安區臥龍街22號師院側門,121.546764999999,25.023145
大安區,臥龍里,臥龍分隊,87-958,第2車,22:04-22:09,臺北市大安區臥龍街56巷6之2號旁,121.546939,25.021806
大安區,臥龍里,臥龍分隊,87-958,第2車,22:10-22:15,臺北市大安區基隆路三段4巷1號,121.547963,25.020794
大安區,臥龍里,臥龍分隊,87-958,第2車,22:17-22:23,臺北市大安區基隆路三段20之4號,121.547391,25.020076
中山區,正義里,中山分隊,88-971,第1車,16:50-16:58,臺北市中山區長安東路一段35號,121.524301,25.049288
中山區,正義里,中山分隊,88-971,第1車,17:00-17:10,臺北市中山區南京東路一段86號,121.525572999999,25.051815
中山區,正義里,中山分隊,88-971,第1車,17:12-17:22,臺北市中山區南京東路一段130號,121.526886,25.051856
中山區,正守里,中山分隊,88-971,第1車,17:25-17:30,臺北市中山區新生北路一段78號前,121.530000999999,25.0473168999999
中山區,正守里,中山分隊,88-971,第1車,17:36-17:41,臺北市中山區市民大道二段71號,121.529517,25.046691
中山區,正守里,中山分隊,88-971,第1車,17:45-17:55,臺北市中山區長安東路一段52巷7弄華山公園旁,121.527894,25.0478859999999
中山區,正守里,中山分隊,88-971,第1車,18:06-18:21,臺北市中山區長安東路一段34號,121.5263411,25.0486444
中山區,正守里,中山分隊,88-971,第1車,18:22-18:30,臺北市中山區長安東路一段54號〈正守公園〉,121.528343,25.048144
中山區,正義里,中山分隊,88-971,第2車,20:20-20:28,臺北市中山區林森北路109號,121.525138,25.050375
中山區,正義里,中山分隊,88-971,第2車,20:29-20:37,臺北市中山區林森北路131號,121.525227,25.050996
中山區,正義里,中山分隊,88-971,第2車,20:41-20:49,臺北市中山區新生北路一段130號前,121.527699,25.050929
中山區,正義里,中山分隊,88-971,第2車,20:50-20:58,臺北市中山區新生北路一段114號,121.527891,25.050556
中山區,正義里,中山分隊,88-971,第2車,20:59-21:07,臺北市中山區長安東路一段75-1號,121.528094,25.048494
中山區,正義里,中山分隊,88-971,第2車,21:08-21:16,臺北市中山區長安東路一段51-5號,121.526108,25.048923
中山區,正義里,中山分隊,88-971,第2車,21:17-21:25,臺北市中山區長安東路一段41-4號,121.525401,25.04911
中山區,正守里,中山分隊,88-971,第2車,21:31-21:40,臺北市中山區長安東路一段54號〈正守公園〉,121.528343,25.048144
中山區,正守里,中山分隊,88-971,第2車,21:41-21:50,臺北市中山區新生北路一段78號前,121.530001,25.047317
中山區,正義里,中山分隊,88-971,第2車,21:53-21:56,臺北市中山區林森北路87號,121.524989,25.0498429999999
中山區,正義里,中山分隊,88-971,第2車,21:57-22:00,臺北市中山區林森北路117號,121.5251398,25.0506327
中山區,正義里,中山分隊,88-971,第2車,22:01-22:05,臺北市中山區林森北路149號,121.525431999999,25.051466
中山區,朱園里,長安分隊,88-972,第1車,16:23-16:28,臺北市中山區松江路27號前,121.533233999999,25.047162
中山區,朱園里,長安分隊,88-972,第1車,16:30-16:36,臺北市中山區松江路59號,121.533253,25.048316
中山區,朱園里,長安分隊,88-972,第1車,16:40-16:50,臺北市中山區松江路75號,121.533175,25.0496769999999
中山區,朱園里,長安分隊,88-972,第1車,16:52-17:02,臺北市中山區南京東路二段140號,121.533553,25.051753
中山區,朱園里,長安分隊,88-972,第1車,17:03-17:12,臺北市中山區南京東路二段172號前,121.534488999999,25.0517539999999
中山區,朱園里,長安分隊,88-972,第1車,17:13-17:18,臺北市中山區南京東路二段216號,121.536193999999,25.0517159999999
中山區,朱園里,長安分隊,88-972,第1車,17:20-17:24,臺北市中山區建國北路一段48號,121.536193999999,25.0478409999999
中山區,朱園里,長安分隊,88-972,第2車,18:50-18:57,臺北市中山區建國北路一段80號,121.536361,25.0495489999999
中山區,朱園里,長安分隊,88-972,第2車,19:00-19:09,臺北市中山區伊通街25號前,121.535068499999,25.0501577
中山區,朱園里,長安分隊,88-972,第2車,19:10-19:15,臺北市中山區長安東路二段100號(伊通街口),121.534750163555,25.0482367961131
中山區,朱園里,長安分隊,88-972,第2車,19:20-19:28,臺北市中山區渭水路3巷1號,121.533421,25.0467
中山區,朱園里,長安分隊,88-972,第2車,19:30-19:35,臺北市中山區市民大道三段37號,121.535075,25.045075
中山區,埤頭里,長安分隊,88-972,第2車,19:37-19:43,臺北市中山區八德路二段96號,121.535967,25.045703
中山區,朱園里,長安分隊,88-972,第3車,21:10-21:18,臺北市中山區長安東路二段127號,121.535859,25.0485159999999
中山區,興亞里,長安分隊,88-972,第3車,21:20-21:29,臺北市中山區長安東路二段35之1號前,121.531495,25.048562
中山區,興亞里,長安分隊,88-972,第3車,21:30-21:38,臺北市中山區吉林路10號前,121.529909,25.049966
中山區,興亞里,長安分隊,88-972,第3車,21:40-21:45,臺北市中山區松江路90巷9號對面,121.531502,25.0505159999999
中山區,朱園里,長安分隊,88-972,第3車,21:47-21:52,臺北市中山區南京東路二段172號前,121.534488999999,25.0517539999999
中山區,中央里,南京分隊,88-973,第1車,16:50-16:59,臺北市中山區伊通街94號(四平公園),121.534775499999,25.0532423
中山區,復華里,南京分隊,88-973,第1車,17:00-17:08,臺北市中山區長春路256號前,121.5358625,25.054743
中山區,復華里,南京分隊,88-973,第1車,17:10-17:20,臺北市中山區龍江路118號旁,121.540628,25.057216
中山區,復華里,南京分隊,88-973,第1車,17:22-17:30,臺北市中山區南京東路三段103號前,121.539542,25.052252
中山區,復華里,南京分隊,88-973,第1車,17:31-17:39,臺北市中山區南京東路三段91號前,121.539248228073,25.0519788646646
中山區,復華里,南京分隊,88-973,第1車,17:40-17:45,臺北市中山區建國北路二段1號前,121.53715,25.0523759999999
中山區,復華里,南京分隊,88-973,第1車,17:46-17:50,臺北市中山區建國北路二段13號前,121.537123918533,25.0537866802356
中山區,復華里,南京分隊,88-973,第2車,19:20-19:27,臺北市中山區長春路400號,121.5434943,25.0545547
中山區,復華里,南京分隊,88-973,第2車,19:29-19:37,臺北市中山區復興北路152號,121.543821,25.052869
中山區,復華里,南京分隊,88-973,第2車,19:39-19:44,臺北市中山區南京東路三段189號前,121.542477607727,25.0519156878318
中山區,復華里,南京分隊,88-973,第2車,19:46-19:53,臺北市中山區龍江路159號前,121.540628,25.057216
中山區,復華里,南京分隊,88-973,第2車,19:54-20:02,臺北市中山區長春路350號,121.541743,25.054558
中山區,復華里,南京分隊,88-973,第2車,20:03-20:10,臺北市中山區遼寧街130號前,121.542062,25.052489
中山區,中央里,南京分隊,88-973,第3車,21:25-21:30,臺北市中山區建國北路二段88號前,121.536684036254,25.0562456553894
中山區,中央里,南京分隊,88-973,第3車,21:31-21:38,臺北市中山區建國北路二段66號前,121.536625027656,25.0545302095466
中山區,中央里,南京分隊,88-973,第3車,21:39-21:45,臺北市中山區建國北路二段38號前,121.536592841148,25.0534902391873
中山區,中央里,南京分隊,88-973,第3車,21:46-22:00,臺北市中山區伊通街94號(四平公園),121.534775499999,25.0532423
中山區,中央里,南京分隊,88-973,第3車,22:01-22:08,臺北市中山區伊通街133號前,121.534784,25.051391
中山區,中央里,南京分隊,88-973,第3車,22:09-22:14,臺北市中山區松江路151號,121.53333,25.055469
中山區,中央里,南京分隊,88-973,第3車,22:15-22:20,臺北市中山區松江路175號,121.53336,25.056068
大安區,敦安里,安和分隊,88-974,第1車,18:00-18:10,臺北市大安區敦化南路一段329巷口,121.549681,25.034134
大安區,敦安里,安和分隊,88-974,第1車,18:10-18:15,臺北市大安區敦化南路一段263號前,121.5598345,25.091075
大安區,敦煌里,安和分隊,88-974,第1車,18:15-18:20,臺北市大安區仁愛路四段266巷口,121.552926,25.0370199999999
大安區,光信里,安和分隊,88-974,第1車,18:20-18:25,臺北市大安區仁愛路四段378號前,121.555869877338,25.0375165954652
大安區,光信里,安和分隊,88-974,第1車,18:25-18:30,臺北市大安區仁愛路四段410號前,121.557036638259,25.0374910787389
大安區,敦安里,安和分隊,88-974,第2車,20:00-20:05,臺北市大安區信義路四段165號前,121.550647616386,25.0333500082521
大安區,敦安里,安和分隊,88-974,第2車,20:05-20:15,臺北市大安區信義路四段199巷口,121.551648,25.034454
大安區,敦煌里,安和分隊,88-974,第2車,20:15-20:20,臺北市大安區信義路四段237號前,121.553286910057,25.0333014033085
大安區,敦煌里,安和分隊,88-974,第2車,20:20-20:25,臺北市大安區信義路四段307號前,121.555797457695,25.033233356355
大安區,光信里,安和分隊,88-974,第2車,20:28-20:35,臺北市大安區延吉街256號前,121.556403,25.03417
大安區,光信里,安和分隊,88-974,第2車,20:35-20:38,臺北市大安區延吉街241巷2弄17號光信公園前,121.556133,25.035384
大安區,光信里,安和分隊,88-974,第2車,20:40-20:50,臺北市大安區光復南路422號前,121.5574008,25.0364256
大安區,全安里,安和分隊,88-974,第3車,22:15-22:20,臺北市大安區安和路二段225號前,121.5501781,25.0253787
大安區,法治里,安和分隊,88-974,第3車,22:30-22:45,臺北市大安區通化街167號前,121.553852,25.0282969999999
大安區,通化里,安和分隊,88-974,第3車,22:45-22:55,臺北市大安區通化街39號前,121.555378899999,25.0308470999999
大安區,龍泉里,和平分隊,88-976,第1車,18:00-18:08,臺北市大安區和平東路一段178號,121.5294,25.026277
大安區,龍坡里,和平分隊,88-976,第1車,18:10-18:20,臺北市大安區和平東路一段212號,121.531668999999,25.026107
大安區,龍坡里,和平分隊,88-976,第1車,18:22-18:30,臺北市大安區和平東路一段266號,121.533606,25.026015
大安區,龍坡里,和平分隊,88-976,第1車,18:34-18:40,臺北市大安區新生南路三段14號,121.534396,25.024792
大安區,龍坡里,和平分隊,88-976,第1車,18:45-19:05,臺北市大安區泰順街38之1號,121.53128,25.024584
大安區,龍坡里,和平分隊,88-976,第2車,20:25-20:30,臺北市大安區辛亥路一段137號前,121.532213,25.0227679999999
大安區,古莊里,和平分隊,88-976,第2車,20:35-20:43,臺北市大安區羅斯福路三段105號,121.526584,25.022362
大安區,古莊里,和平分隊,88-976,第2車,20:45-20:55,臺北市大安區羅斯福路三段19號,121.524985,25.0239219999999
大安區,古莊里,和平分隊,88-976,第2車,20:57-21:05,臺北市大安區羅斯福路二段79號前,121.523349,25.0262269999999
大安區,古莊里,和平分隊,88-976,第2車,21:08-21:13,臺北市大安區和平東路一段14號前,121.523444,25.026789
大安區,古莊里,和平分隊,88-976,第2車,21:15-21:20,臺北市大安區和平東路一段104巷口,121.524885,25.025973
大安區,古莊里,和平分隊,88-976,第3車,22:38-22:50,臺北市大安區師大路53號對面,121.528636,25.024111
大安區,古莊里,和平分隊,88-976,第3車,22:52-23:05,臺北市大安區師大路86巷2號旁,121.52744,25.023015
信義區,三張里,吳興分隊,88-979,第1車,18:30-19:00,臺北市信義區松仁路160號旁,121.5682286,25.0283792
信義區,三張里,吳興分隊,88-979,第1車,19:05-19:30,臺北市信義區莊敬路341巷口,121.564895,25.028547
信義區,三張里,吳興分隊,88-979,第2車,21:05-21:30,臺北市信義區莊敬路404巷口,121.56573,25.026785
信義區,惠安里,吳興分隊,88-979,第2車,21:35-22:00,臺北市信義區吳興街600巷口,121.570352,25.0198
信義區,富台里,五分埔,88-980,第1車,16：30-17：30,臺北市信義區忠孝東路五段275巷7弄口,121.5703,25.0413
信義區,雅祥里,五分埔分隊,88-980,第2車,17:40-17:45,臺北市信義區松信路38號對面,121.572063,25.0479869999999
信義區,雅祥里,五分埔分隊,88-980,第2車,17:46-17:55,臺北市信義區松信路與松隆路交叉口,121.5721618,25.0468853
信義區,雅祥里,五分埔分隊,88-980,第2車,18:00-18:10,臺北市信義區永吉路37巷口,121.568892,25.04673
信義區,雅祥里,五分埔分隊,88-980,第2車,18:11-18:24,臺北市信義區基隆路一段37巷47號,121.5685874,25.0478054999999
信義區,雅祥里,五分埔分隊,88-980,第2車,18:26-18:40,臺北市信義區基隆路一段35巷7弄4號,121.570552,25.04785
信義區,雅祥里,五分埔分隊,88-980,第2車,18:42-18:45,臺北市信義區永吉路127巷與基隆路一段83巷交叉口(興雅國小邊),121.570381,25.04669
信義區,永吉里,五分埔分隊,88-980,第3車,19:50-19:59,臺北市信義區永吉路517巷口,121.580108999999,25.0459549999999
信義區,永吉里,五分埔分隊,88-980,第3車,20:00-20:09,臺北市信義區永吉路443巷口,121.578385,25.0466799999999
信義區,永吉里,五分埔分隊,88-980,第3車,20:10-20:20,臺北市信義區松山路161巷口,121.578155,25.046313
信義區,永吉里,五分埔分隊,88-980,第3車,20:22-20:25,臺北市信義區松山路294號 (永春市場),121.5775774,25.0430691
信義區,富台里,五分埔分隊,88-980,第3車,20:25-20:35,臺北市信義區松山路332號,121.577614,25.041988
信義區,長春里,五分埔分隊,88-980,第3車,20：40-21：10,臺北市信義區虎林街119巷內(虎林市場),121.57723,25.0421119999999
內湖區,瑞陽里,文德分隊,88-985,第1車,17:45-17:53,臺北市內湖區文德路208巷64號,121.5835619,25.0760145
內湖區,紫陽里,文德分隊,88-985,第1車,17:55-18:03,臺北市內湖區文德路66巷38弄6號,121.581887,25.075796
內湖區,瑞光里,文德分隊,88-985,第1車,18:05-18:13,臺北市內湖區陽光街186號,121.580846,25.074516
內湖區,瑞光里,文德分隊,88-985,第1車,18:14-18:19,臺北市內湖區江南街71巷66號,121.579261,25.074094
內湖區,瑞光里,文德分隊,88-985,第1車,18:22-18:27,臺北市內湖區民權東路六段74號,121.585324,25.068721
內湖區,瑞陽里,文德分隊,88-985,第2車,19:50-20:00,臺北市內湖區文德路208巷20號,121.58341,25.077529
內湖區,瑞陽里,文德分隊,88-985,第2車,20:03-20:13,臺北市內湖區文德路66巷10弄1號,121.581306,25.077827
內湖區,瑞陽里,文德分隊,88-985,第2車,20:14-20:24,臺北市內湖區江南街71巷38弄6號,121.578677,25.075066
內湖區,湖元里,文德分隊,88-985,第2車,20:27-20:35,臺北市內湖區民權東路六段122號,121.587301,25.068875
內湖區,湖元里,文德分隊,88-985,第2車,20:40-20:45,臺北市內湖區民權東路六段191巷38弄19號,121.597065,25.0690394
內湖區,寶湖里,文德分隊,88-985,第3車,21:30-21:32,臺北市內湖區民權東路六段180巷41弄38號,121.593543999999,25.0670399999999
內湖區,寶湖里,文德分隊,88-985,第3車,21:33-21:35,臺北市內湖區民權東路六段190巷35弄23號,121.582873699999,25.0686052
內湖區,湖興里,文德分隊,88-985,第3車,21:43-21:50,臺北市內湖區民權東路六段75號,121.587687,25.069247
內湖區,瑞元里,文德分隊,88-985,第3車,21:52-22:57,臺北市內湖區瑞光路112巷50號對面,121.580061,25.071255
內湖區,瑞光里,文德分隊,88-985,第3車,22:00-22:10,臺北市內湖區江南街71巷42號,121.578931,25.074711
內湖區,紫陽里,文德分隊,88-985,第3車,22:12-22:20,臺北市內湖區陽光街55號,121.586812,25.076425
內湖區,紫陽里,文德分隊,88-985,第3車,22:22-22:25,臺北市內湖區文德路230號,121.588191,25.078761
內湖區,湖元里,文德分隊,88-986,第1車,17:35-17:50,臺北市內湖區行愛路1號對面,121.580682,25.0633209999999
內湖區,石潭里,文德分隊,88-986,第1車,18:00-18:08,臺北市內湖區新明路102號,121.589355,25.059614
內湖區,石潭里,文德分隊,88-986,第1車,18:10-18:15,臺北市內湖區新明路143巷7號,121.589533,25.058767
內湖區,週美里,文德分隊,88-986,第1車,18:27-18:40,臺北市內湖區新明路250號,121.5837414,25.056622
內湖區,石潭里,文德分隊,88-986,第1車,18:43-18:48,臺北市內湖區新明路221號,121.587722,25.058088
內湖區,石潭里,文德分隊,88-986,第1車,18:50-18:52,臺北市內湖區新明路109號,121.590186,25.059685
內湖區,石潭里,文德分隊,88-986,第1車,18:53-18:55,臺北市內湖區新明路71號,121.590959,25.060172
內湖區,石潭里,文德分隊,88-986,第2車,20:08-20:15,臺北市內湖區民權東路六段180巷150號,121.58962,25.068804
內湖區,週美里,文德分隊,88-986,第2車,20:24-20:34,臺北市內湖區新明路172號,121.585534,25.057519
內湖區,週美里,文德分隊,88-986,第2車,20:36-20:43,臺北市內湖區新明路290號,121.582353,25.056071
內湖區,週美里,文德分隊,88-986,第2車,20:44-20:49,臺北市內湖區新明路298巷14弄1號,121.581948,25.056637
內湖區,週美里,文德分隊,88-986,第3車,22:05-22:08,臺北市內湖區行善路59巷40弄41號,121.578529,25.056384
內湖區,行善里,文德分隊,88-986,第3車,22:12-22:18,臺北市內湖區行善路13號,121.575078,25.055963
內湖區,行善里,文德分隊,88-986,第3車,22:19-22:25,臺北市內湖區行善路55號,121.5768384,25.0571764
北投區,中庸里,光明分隊,88-992,第1車,16:15-16:20,臺北市北投區珠海路雙全街口,121.504958,25.140801
北投區,中庸里,光明分隊,88-992,第1車,16:21-16:31,臺北市北投區珠海路1號,121.501525,25.137703
北投區,中庸里,光明分隊,88-992,第1車,16:33-16:35,臺北市北投區臺北市大業路松林飯店,121.49769,25.1283649999999
北投區,中庸里,光明分隊,88-992,第1車,16:36-16:39,臺北市北投區大業路雙全街口,121.5598345,25.091075
北投區,中庸里,光明分隊,88-992,第1車,16:40-16:42,臺北市北投區大業路大同街口,121.499115,25.136955
北投區,豐年里,光明分隊,88-992,第1車,16:43-16:45,臺北市北投區大業路中央北路口,121.49769,25.128365
北投區,豐年里,光明分隊,88-992,第1車,16:46-16:47,臺北市北投區大業路525巷口,121.495668,25.13429
北投區,大同里,光明分隊,88-992,第1車,16:48-16:49,臺北市北投區大業路大興街口,121.499549,25.130453
北投區,大同里,光明分隊,88-992,第1車,16:50-16:51,臺北市北投區大業路432號前,121.49769,25.128365
北投區,大同里,光明分隊,88-992,第1車,16:52-16:54,臺北市北投區大業路472巷口,121.49769,25.128365
北投區,大同里,光明分隊,88-992,第1車,16:55-16:56,臺北市北投區大業路526號,121.496655,25.134765
北投區,大同里,光明分隊,88-992,第1車,16:57-16:58,臺北市北投區大業路572號,121.497085,25.135559
北投區,大同里,光明分隊,88-992,第1車,16:59-17:00,臺北市北投區大業路大同街口,121.499115,25.136955
北投區,秀山里,光明分隊,88-992,第2車,17:43-17:49,臺北市北投區中和街474巷口,121.495423,25.146322
北投區,秀山里,光明分隊,88-992,第2車,17:50-17:51,臺北市北投區中和街512號前,121.499156,25.14161
北投區,秀山里,光明分隊,88-992,第2車,17:52-17:53,臺北市北投區中和街530號旁,121.499156,25.14161
北投區,稻香里,光明分隊,88-992,第2車,17:54-17:55,臺北市北投區秀山橋上,121.5598345,25.091075
北投區,稻香里,光明分隊,88-992,第2車,17:57-17:59,臺北市北投區秀山路30號前,121.493118,25.146921
北投區,稻香里,光明分隊,88-992,第2車,18:02-18:03,臺北市北投區稻香路185號,121.488543,25.143401
北投區,稻香里,光明分隊,88-992,第2車,18:04-18:05,臺北市北投區稻香路石仙路口,121.485975,25.143132
北投區,稻香里,光明分隊,88-992,第2車,18:08-18:09,臺北市北投區新興路石仙路口,121.488005,25.140167
北投區,稻香里,光明分隊,88-992,第2車,18:11-18:12,臺北市北投區新興路70巷口,121.487801,25.141158
北投區,稻香里,光明分隊,88-992,第2車,18:13-18:15,臺北市北投區新興路重三路口,121.488005,25.140167
北投區,稻香里,光明分隊,88-992,第2車,18:16-18:17,臺北市北投區新興路崗山路口,121.488005,25.140167
北投區,豐年里,光明分隊,88-992,第2車,18:21-18:22,臺北市北投區中央北路二段395、371、343號,121.486929,25.138125
北投區,豐年里,光明分隊,88-992,第2車,18:23-18:25,臺北市北投區中央北路二段325、307號、273巷前,121.5598345,25.091075
北投區,豐年里,光明分隊,88-992,第2車,18:26-18:30,臺北市北投區稻香橋上,121.5598345,25.091075
北投區,溫泉里,光明分隊,88-992,第3車,19:10-19:12,臺北市北投區公館路85巷口,121.505353,25.131638
北投區,溫泉里,光明分隊,88-992,第3車,19:13-19:18,臺北市北投區公館路63巷口,121.504707999999,25.1328679999999
北投區,溫泉里,光明分隊,88-992,第3車,19:19-19:23,臺北市北投區公館路31號前,121.506221,25.124388
北投區,溫泉里,光明分隊,88-992,第3車,19:25-19:28,臺北市北投區光明路溫泉路口,121.507249474525,25.1361646090122
北投區,長安里,光明分隊,88-992,第3車,19:29-19:31,臺北市北投區光明路150號前,121.5598345,25.091075
北投區,長安里,光明分隊,88-992,第3車,19:33-19:34,臺北市北投區光明路188號前,121.5598345,25.091075
北投區,長安里,光明分隊,88-992,第3車,19:35-19:36,臺北市北投區光明路218號前,121.5598345,25.091075
北投區,長安里,光明分隊,88-992,第3車,19:39-19:40,臺北市北投區光明路228號前,121.5598345,25.091075
北投區,溫泉里,光明分隊,88-992,第3車,19:41-19:43,臺北市北投區光明路238號前,121.5598345,25.091075
北投區,溫泉里,光明分隊,88-992,第3車,19:44-19:46,臺北市北投區光明路270號前,121.5598345,25.091075
北投區,林泉里,光明分隊,88-992,第3車,19:47-19:48,臺北市北投區中山路地熱谷,121.5427093,25.0792018
北投區,林泉里,光明分隊,88-992,第3車,19:50-19:53,臺北市北投區中山路5號前,121.5427093,25.0792018
北投區,林泉里,光明分隊,88-992,第3車,19:55-20:00,臺北市北投區中山路1號前,121.504771,25.1370819999999
北投區,中心里,光明分隊,88-992,第3車,20:01-20:05,臺北市北投區中和街20巷口,121.504034,25.13849
北投區,中庸里,光明分隊,88-992,第3車,20:06-20:08,臺北市北投區大業路雙全街口,121.5598345,25.091075
北投區,中庸里,光明分隊,88-992,第3車,20:09-20:10,臺北市北投區大業路大同街口,121.499115,25.136955
北投區,文化里,光明分隊,88-992,第3車,20:11-20:13,臺北市北投區大業路中央北路口,121.49769,25.128365
北投區,豐年里,光明分隊,88-992,第3車,20:14-20:15,臺北市北投區大業路525巷口,121.495668,25.13429
北投區,文化里,光明分隊,88-992,第4車,20:50-21:03,臺北市北投區文化三路杏林一路口,121.5598345,25.091075
北投區,文化里,光明分隊,88-992,第4車,21:04-21:06,臺北市北投區文化三路區里公園旁,121.5598345,25.091075
北投區,文化里,光明分隊,88-992,第4車,21:07-21:09,臺北市北投區文化三路12號,121.497828,25.137586
北投區,文化里,光明分隊,88-992,第4車,21:10-21:12,臺北市北投區文化三路2號,121.497216,25.137124
北投區,文化里,光明分隊,88-992,第4車,21:13-21:16,臺北市北投區中央北路二段42巷口,121.5598345,25.091075
北投區,文化里,光明分隊,88-992,第4車,21:17-21:19,臺北市北投區中央北路二段66巷口,121.5598345,25.091075
北投區,文化里,光明分隊,88-992,第4車,21:20-21:22,臺北市北投區中央北路二段130號,121.491624,25.138569
北投區,稻香里,光明分隊,88-992,第4車,21:23-21:24,臺北市北投區中央北路二段320巷口,121.5598345,25.091075
北投區,豐年里,光明分隊,88-992,第4車,21:25-21:26,臺北市北投區中央北路二段275號,121.490589,25.13838
北投區,豐年里,光明分隊,88-992,第4車,21:27-21:28,臺北市北投區中央北路二段豐年路口,121.5598345,25.091075
北投區,豐年里,光明分隊,88-992,第4車,21:29-21:31,臺北市北投區中央北路二段131巷口,121.5598345,25.091075
北投區,豐年里,光明分隊,88-992,第4車,21:32-21:33,臺北市北投區中央北路二段95巷口,121.5598345,25.091075
北投區,豐年里,光明分隊,88-992,第4車,21:34-21:36,臺北市北投區豐年公園,121.502740399999,25.1363615
北投區,大同里,光明分隊,88-992,第4車,21:37-21:40,臺北市北投區大業路大興街口,121.499549,25.130453
北投區,大同里,光明分隊,88-992,第4車,21:41-21:44,臺北市北投區大業路432號前,121.49769,25.128365
北投區,大同里,光明分隊,88-992,第4車,21:45-21:50,臺北市北投區大業路472巷口,121.49769,25.128365
北投區,大同里,光明分隊,88-992,第4車,21:51-21:52,臺北市北投區大業路526號,121.496655,25.134765
北投區,大同里,光明分隊,88-992,第4車,21:53-21:54,臺北市北投區大業路572號,121.497085,25.135559
北投區,長安里,光明分隊,88-992,第4車,21:55-22:00,臺北市北投區大業路大同街口,121.499115,25.136955
中山區,民安里,中山分隊,90-900,第1車,16:30-16:40,臺北市中山區中山北路二段74號,121.522494999999,25.0571989
中山區,民安里,中山分隊,90-900,第1車,16:41-16:50,臺北市中山區中山北路二段22號,121.522355999999,25.0535889999999
中山區,民安里,中山分隊,90-900,第1車,16:55-17:00,臺北市中山區民生西路64號,121.520857,25.057524
中山區,民安里,中山分隊,90-900,第1車,17:01-17:04,臺北市中山區民生西路20號,121.52203,25.0576919999999
中山區,中山里,中山分隊,90-900,第1車,17:06-17:12,臺北市中山區民生東路一段48號,121.524779,25.057924
中山區,中山里,中山分隊,90-900,第1車,17:14-17:18,臺北市中山區民生東路一段72號,121.526565,25.057891
中山區,聚盛里,中山分隊,90-900,第1車,17:20-17:25,臺北市中山區民生東路一段59號,121.526517,25.05818
中山區,聚盛里,中山分隊,90-900,第1車,17:26-17:35,臺北市中山區民生東路一段13號,121.523833,25.058194
中山區,聚盛里,中山分隊,90-900,第1車,17:36-17:40,臺北市中山區中山北路二段91號,121.523079999999,25.0593359999999
中山區,聚盛里,中山分隊,90-900,第1車,17:41-17:45,臺北市中山區錦州街6號,121.523664999999,25.060248
中山區,聚盛里,中山分隊,90-900,第1車,17:46-17:50,臺北市中山區錦州街28號,121.524556,25.060198
中山區,民安里,中山分隊,90-900,第2車,19:20-19:25,臺北市中山區南京西路21號,121.520572,25.052775
中山區,民安里,中山分隊,90-900,第2車,19:30-19:33,臺北市中山區中山北路二段52號,121.522601899999,25.0563572
中山區,民安里,中山分隊,90-900,第2車,19:34-19:40,臺北市中山區中山北路二段42巷18號前,121.521750999999,25.05459
中山區,民安里,中山分隊,90-900,第2車,19:42-19:50,臺北市中山區中山北路一段124號,121.521888999999,25.0509419999999
中山區,民安里,中山分隊,90-900,第2車,19:51-19:53,臺北市中山區中山北路一段94號,121.521154,25.049382
中山區,民安里,中山分隊,90-900,第2車,19:54-19:59,臺北市中山區華陰街16號,121.520318,25.048987
中山區,民安里,中山分隊,90-900,第2車,20:04-20:10,臺北市中山區長安西路50號,121.520167,25.050006
中山區,正得里,中山分隊,90-900,第2車,20:11-20:15,臺北市中山區長安東路一段12號,121.5229245,25.0494542
中山區,正得里,中山分隊,90-900,第3車,21:25-21:30,臺北市中山區林森北路140號,121.525096,25.051558
中山區,正得里,中山分隊,90-900,第3車,21:31-21:35,臺北市中山區林森北路102號,121.524795999999,25.050563
中山區,正得里,中山分隊,90-900,第3車,21:36-21:40,臺北市中山區林森北路92號,121.5246474,25.0498277999999
中山區,正得里,中山分隊,90-900,第3車,21:41-21:45,臺北市中山區林森北路56號,121.524272999999,25.048641
中山區,正得里,中山分隊,90-900,第3車,21:46-21:50,臺北市中山區天津街21號(市民大道上),121.522361040115,25.0479950156776
中山區,正得里,中山分隊,90-900,第3車,21:51-21:54,臺北市中山區中山北路一段35號,121.521498999999,25.0488639
中山區,正得里,中山分隊,90-900,第3車,21:55-22:00,臺北市中山區中山北路一段93號,121.522291,25.0506789999999
中山區,正得里,中山分隊,90-900,第3車,22:01-22:05,臺北市中山區南京東路一段24號,121.523711999999,25.052028
文山區,興家里,興隆分隊,90-904,第1車,17:20-17:23,臺北市文山區興隆路三段267號前,121.55887,24.9921529999999
文山區,興家里,興隆分隊,90-904,第1車,17:23-17:26,臺北市文山區興隆路三段253號前,121.558944999999,24.992709
文山區,興家里,興隆分隊,90-904,第1車,17:26-17:29,臺北市文山區興隆路三段227號前,121.559293,24.993521
文山區,興家里,興隆分隊,90-904,第1車,17:29-17:31,臺北市文山區興隆路三段219號前,121.559678,24.9942899999999
文山區,興家里,興隆分隊,90-904,第1車,17:31-17:34,臺北市文山區興隆路三段205號前,121.559954,24.995448
文山區,興光里,興隆分隊,90-904,第1車,17:34-17:37,臺北市文山區興隆路三段177號前,121.560233,24.996343
文山區,興光里,興隆分隊,90-904,第1車,17:38-17:43,臺北市文山區興隆路三段123號前,121.558299,24.99887
文山區,興泰里,興隆分隊,90-904,第1車,17:47-17:50,臺北市文山區興隆路二段283號前,121.552862,25.0016159999999
文山區,興邦里,興隆分隊,90-904,第1車,17:52-18:00,臺北市文山區興隆路二段231號前,121.550535999999,25.001397
文山區,興邦里,興隆分隊,90-904,第1車,18:00-18:06,臺北市文山區興隆路二段201號前,121.549674,25.000888
文山區,興豐里,興隆分隊,90-904,第1車,18:06-18:11,臺北市文山區興隆路二段125號前,121.547758,24.999946
文山區,興豐里,興隆分隊,90-904,第1車,18:12-18:17,臺北市文山區興隆路二段69號前,121.546359,24.999161
文山區,興豐里,興隆分隊,90-904,第1車,18:17-18:22,臺北市文山區興隆路一段291號前,121.54467,24.998777
文山區,興豐里,興隆分隊,90-904,第1車,18:23-18:26,臺北市文山區興隆路一段227號前,121.543806,25.000124
文山區,興豐里,興隆分隊,90-904,第1車,18:28-18:29,臺北市文山區景豐街48巷11弄50號前,121.546643,25.0003409999999
文山區,興邦里,興隆分隊,90-904,第1車,18:30-18:35,臺北市文山區興隆路二段203巷54號前,121.547576,25.002497
文山區,興邦里,興隆分隊,90-904,第1車,18:36-18:40,臺北市文山區興隆路二段203巷16號前,121.5487588,25.0021719
文山區,興光里,興隆分隊,90-904,第2車,20:12-20:15,臺北市文山區興隆路三段67號前,121.556454,25.000142
文山區,興光里,興隆分隊,90-904,第2車,20:15-20:20,臺北市文山區興隆路三段17號前,121.555149,25.0008969999999
文山區,興旺里,興隆分隊,90-904,第2車,20:25-20:37,臺北市文山區福興路82巷1弄1號前（山下）,121.550374,25.006101
文山區,興旺里,興隆分隊,90-904,第2車,20:38-20:48,臺北市文山區福興路65號前,121.549866,25.004247
文山區,興旺里,興隆分隊,90-904,第2車,20:49-20:55,臺北市文山區福興路17號前,121.549866,25.004247
文山區,興安里,興隆分隊,90-904,第2車,20:57-21:00,臺北市文山區仙岩路19號前,121.549458,24.999522
文山區,興安里,興隆分隊,90-904,第2車,21:01-21:06,臺北市文山區仙岩路11巷3號前,121.548119,24.999113
文山區,興安里,興隆分隊,90-904,第2車,21:08-21:13,臺北市文山區興隆路二段98號前,121.5498323,25.0007653999999
文山區,興業里,興隆分隊,90-904,第2車,21:15-21:18,臺北市文山區興隆路二段218號旁,121.552432999999,25.0012669
文山區,興業里,興隆分隊,90-904,第2車,21:19-21:24,臺北市文山區興隆路二段244巷20號前,121.553168,25.000183
文山區,興業里,興隆分隊,90-904,第2車,21:25-21:30,臺北市文山區辛亥路五段90號前,121.553043,24.9985679999999
文山區,興業里,興隆分隊,90-904,第2車,21:30-21:35,臺北市文山區辛亥路五段118巷2號旁,121.552066999999,24.99747
南港區,新富里,舊莊分隊,90-908,第1車,18:08-18:14,臺北市南港區富康街22號前,121.617199,25.0530779999999
南港區,新富里,舊莊分隊,90-908,第1車,18:15-18:29,臺北市南港區富康街52號前,121.617199,25.0530779999999
南港區,新富里,舊莊分隊,90-908,第1車,18:33-18:37,臺北市南港區研究院路一段151巷18號,121.616065,25.049973
南港區,中研里,舊莊分隊,90-908,第1車,18:39-18:45,臺北市南港區研究院路一段臨128號右前,121.616015,25.0519439999999
南港區,中研里,舊莊分隊,90-908,第1車,18:47-18:51,臺北市南港區研究院路二段86號前,121.616127,25.048769
南港區,中研里,舊莊分隊,90-908,第1車,18:52-18:58,臺北市南港區研究院路二段98巷1號右側,121.615747,25.044381
南港區,舊莊里,舊莊分隊,90-908,第1車,19:01-19:13,臺北市南港區舊莊街一段3巷18號,121.618318,25.0424089999999
南港區,中研里,舊莊分隊,90-908,第1車,19:14-19:23,臺北市南港區研究院路二段61巷2弄41號,121.618646,25.04355
南港區,舊莊里,舊莊分隊,90-908,第2車,20:20-20:25,臺北市南港區南深路21巷1號前,121.62172,25.037984
南港區,舊莊里,舊莊分隊,90-908,第2車,20:26-20:30,臺北市南港區南深路19巷14號前,121.621793999999,25.038356
南港區,舊莊里,舊莊分隊,90-908,第2車,20:31-20:37,臺北市南港區舊莊街一段145巷6弄55號旁,121.622624,25.0392769999999
南港區,舊莊里,舊莊分隊,90-908,第2車,20:38-20:43,臺北市南港區舊莊街一段197號,121.622082,25.0388489999999
南港區,舊莊里,舊莊分隊,90-908,第2車,20:44-20:48,臺北市南港區舊莊街一段167號,121.621197,25.039463
南港區,舊莊里,舊莊分隊,90-908,第2車,20:49-20:54,臺北市南港區舊莊街一段145巷6弄1號右側,121.620654,25.040379
南港區,舊莊里,舊莊分隊,90-908,第2車,20:55-20:59,臺北市南港區舊莊街一段91巷8號,121.619495,25.0409469999999
南港區,舊莊里,舊莊分隊,90-908,第2車,21:00-21:05,臺北市南港區舊莊街一段49號,121.618441,25.041449
南港區,中研里,舊莊分隊,90-908,第2車,21:07-21:10,臺北市南港區研究院路二段59巷1號左前方,121.615654,25.044557
南港區,中研里,舊莊分隊,90-908,第2車,21:11-21:16,臺北市南港區研究院路二段39號,121.615506999999,25.0456049999999
南港區,新富里,舊莊分隊,90-908,第2車,21:21-21:23,臺北市南港區富康街1巷16弄10號,121.617889,25.053888
南港區,新富里,舊莊分隊,90-908,第2車,21:24-21:26,臺北市南港區富康街1巷16弄38號,121.617824,25.05309
南港區,新富里,舊莊分隊,90-908,第2車,21:27-21:30,臺北市南港區富康街53巷9號,121.617705,25.052481
南港區,中研里,舊莊分隊,90-908,第2車,21:36-21:47,臺北市南港區研究院路二段12巷58弄1號對面,121.613893,25.0473339999999
南港區,中研里,舊莊分隊,90-908,第2車,21:49-21:57,臺北市南港區研究院路二段70巷12號(中研市場旁),121.614487,25.045417
大安區,住安里,瑞安分隊,90-909,第1車,18:10-18:15,臺北市大安區信義路四段74號前,121.54642,25.0331319999999
大安區,龍雲里,瑞安分隊,90-909,第1車,18:30-18:36,臺北市大安區四維路160巷2號旁,121.547933,25.028755
大安區,龍雲里,瑞安分隊,90-909,第1車,18:45-18:50,臺北市大安區敦化南路二段62號旁,121.54839,25.0301119999999
大安區,龍雲里,瑞安分隊,90-909,第1車,18:51-18:57,臺北市大安區四維路150號,121.547863,25.031108
大安區,住安里,瑞安分隊,90-909,第1車,18:58-19:00,臺北市大安區四維路94號,121.547931,25.03291
大安區,龍圖里,瑞安分隊,90-909,第1車,19:15-19:20,臺北市大安區信義路三段140號旁(美國在台協會),121.540161,25.03313
大安區,龍圖里,瑞安分隊,90-909,第1車,19:21-19:28,臺北市大安區信義路三段168號,121.541706,25.033198
大安區,龍圖里,瑞安分隊,90-909,第1車,19:30-19:35,臺北市大安區復興南路二段10號,121.54336,25.032792
大安區,龍圖里,瑞安分隊,90-909,第1車,19:36-19:40,臺北市大安區復興南路二段80號前,121.543342999999,25.0310109999999
大安區,龍雲里,瑞安分隊,90-909,第2車,20:50-20:58,臺北市大安區大安路二段99號,121.546224,25.029358
大安區,住安里,瑞安分隊,90-909,第2車,21:00-21:15,臺北市大安區大安路二段90號前,121.5459625,25.031272
大安區,住安里,瑞安分隊,90-909,第2車,21:16-21:23,臺北市大安區復興南路二段55號前,121.543762,25.030985
大安區,住安里,瑞安分隊,90-909,第2車,21:24-21:30,臺北市大安區復興南路二段13號前,121.543888,25.032543
大安區,住安里,瑞安分隊,90-909,第2車,21:32-21:50,臺北市大安區信義路四段60號前(信維市場),121.545483,25.03312
大安區,德安里,瑞安分隊,90-909,第2車,21:52-22:04,臺北市大安區大安路一段205號前,121.5460566,25.0353244
大安區,德安里,瑞安分隊,90-909,第2車,22:05-22:15,臺北市大安區大安路一段177號旁（仁愛公園）,121.5460863,25.0363739999999
北投區,大屯里,光明分隊,90-910,第1車,16:50-16:52,臺北市北投區復興三路355巷56號前(回收車收運),121.5598345,25.091075
北投區,大屯里,光明分隊,90-910,第1車,16:53-16:54,臺北市北投區復興三路521巷240號百姓公廟前(回收車收運),121.5598345,25.091075
北投區,大屯里,光明分隊,90-910,第1車,16:55-16:56,臺北市北投區復興三路521巷34號前(回收車收運),121.5598345,25.091075
北投區,大屯里,光明分隊,90-910,第1車,17:00-17:05,臺北市北投區復興三路526號前清天宮旁(回收車收運),121.5598345,25.091075
北投區,大屯里,光明分隊,90-910,第1車,17:06-17:07,臺北市北投區復興三路488號前(回收車收運),121.5598345,25.091075
北投區,大屯里,光明分隊,90-910,第1車,17:08-17:09,臺北市北投區復興三路355巷口(回收車收運),121.5598345,25.091075
